,店名,类型,地址,评论数,人均,口味,环境,服务,特色菜,经度,纬度
0,珍滋味港式粥火锅(工体店),火锅,工人体育场东路丙2号中国红街3号楼2层里,4725,250,9.2,9,9.2,初始的元贝粥底 鬼马酿油条,116.4445963,39.9309509
1,释・澳门火锅料理(旗舰总店),火锅,农展馆南里克拉斯家居院内,528,248,9.1,9.2,9.3,澳洲和牛M9 招牌猪骨小蹄汤,116.4509101,39.93013903
2,小牛海记潮汕牛肉店(牡丹园店),火锅,花园路中城写字楼2层,6699,103,8.5,8.2,8,原味嫩牛肉 手捶牛肉丸锅底,116.362886,39.97779993
3,官也街澳门火锅(东直门店),火锅,东直门内大街9号NAGA上院,1315,499,9.2,9.1,9,澳门鸡脚猪骨煲 极上雪花牛肉,116.4218224,39.94054865
4,朴氏私家火锅,火锅,黄寺大街15号佰隆大厦4层,825,97,9.1,8.5,8.8,牛蛙火锅 炸馒头片,116.3827445,39.96193013
5,金簋小山城分店,火锅,东直门内大街183号,1736,112,8.1,7.5,7.6,原创馋嘴蛙仔 麻辣小龙虾,116.4170761,39.93984329
6,旬野菜寿喜烧・食放题(望京港旅店),日本菜,湖光中街甲6号港旅大厦一楼,2017,158,8.8,9,8.9,澳洲和牛上脑 寿喜烧,116.4582434,39.99549415
7,满恒记火锅,火锅,平安里西大街14号,16720,93,9.2,8.3,8.7,招牌麻酱糖饼 鲜切羊上脑,116.3615211,39.93081956
8,旬野菜新派日式火锅(方庄店),日本菜,方庄芳星园二区6号楼方庄时代广场5F,1355,164,9,9,8.9,寿喜烧锅底 抹茶杏仁豆腐,116.4292043,39.86412156
9,三味缘牛蛙火锅(官园店),火锅,车公庄南街7天酒店1楼,4247,98,9.1,8.6,9,牛蛙 孜然羊肉,116.3434183,39.92862187
10,桐记小灶儿牛板筋火锅(鼓楼店),火锅,鼓楼西大街甘露胡同2号,2992,114,9,8.3,8.8,香辣牛板筋火锅 香酥泡饼,116.3818856,39.94211017
11,牛串门串串香,火锅,东直门内大街5-7号,2931,90,9,8.6,8.8,话梅牛肉 川椒牛肉,116.423485,39.93987081
12,旬野菜新派日式火锅(东方广场店),日本菜,东长安街一号,2246,157,8.9,9,8.8,寿喜锅 牛上脑,116.4056698,39.90803681
13,聚焦鲜牛肉潮汕火锅,火锅,五圈路总部基地盈坤世纪H座一层,2349,129,9.2,9.3,9.4,手打鲜牛肉丸 吊龙,116.2972502,39.82474763
14,伊豆野菜村(中海环宇荟店),日本菜,安定路5号院6号楼中海环宇荟购物中心3层309-311,1513,153,9,9.1,8.9,牛上脑 牛肩肉,116.3998573,39.97787078
15,香港海梦火锅,火锅,东大桥路8号SOHO尚都北塔B座4层2418,154,223,7.5,7.7,7.2,至尊肥牛 港式鸡脚软骨汤,116.4461533,39.91778592
16,耍牛忙串串香(百子湾店),火锅,百子湾路16号,1604,81,8.6,8.4,7.9,烫锅串串 冷锅串串,116.4808144,39.89953983
17,重八牛府(花乡奥莱店),火锅,南四环西路76号7号楼304,2474,101,9.3,9.2,9.4,重八招牌手打牛丸（鲜肉现打） 嫩牛肉,116.3182064,39.82639387
18,小红袍香港私房火锅料理(王府中环店),火锅,王府井大街王府中环西座408,224,281,9.2,9.2,9,鬼马虾胶 金屋藏娇,116.4049391,39.91495525
19,有面儿串串香火锅(交道口店),火锅,安定门内大街136号,402,83,8.2,7.9,8.5,嫩滑牛肉 麻辣牛肉,116.4023531,39.9436043
20,老北京涮肉(旧鼓楼店),火锅,旧鼓楼大街铃铛胡同25号,681,102,8.5,7.7,7.9,手切鲜羊肉 麻酱,116.3881305,39.94112971
21,第六季自助餐厅(王府井店),自助餐,东安门大街55号,2188,243,9.1,9.2,9.4,基围虾 鲍鱼,116.4012358,39.914397
22,北平三兄弟涮肉(簋街店),火锅,东直门内大街5―6号,6058,120,9.1,9,8.9,鲜羊肉 骨肉相连,116.422844,39.93986997
23,成都葫芦娃一家人火锅(三里屯店),火锅,三里屯工体东路丙2号中国红街3号楼301室,7422,157,9,9.1,8.6,澳招牌洲千层肚 现炸酥肉,116.4445963,39.9309509
24,辣三里火锅(三里屯店),火锅,工人体育场北路三里屯SOHO1号商场5层,133,135,9.1,9.1,9.1,鸳鸯锅底 大脸水牛脆毛肚,116.4479214,39.93153047
25,攀成钢小郡肝串串香,火锅,成府路29号,805,110,9.2,9,9.1,红油锅底 串串香,116.3323612,39.99180537
26,熊也牛店(鼓楼店),日本菜,鼓楼东大街238号临街,5676,173,9.1,9,9,牛肉寿喜锅 宇治抹茶蛋糕,116.3924549,39.93924014
27,行运打边炉(工体店),火锅,工人体育场北路15号VICS旁,381,278,9,8.7,8.5,金牌花胶鸡煲 炸响铃,116.4416534,39.93258108
28,宽板凳老灶火锅(广渠门双井店),火锅,广渠路家乐福东北角,719,113,8.2,8.2,8.3,孜然麻辣牛肉 手工鲜羊肉,116.4681769,39.89245237
29,伊豆野菜村(华润五彩城店),日本菜,清河中街华润五彩城五楼东区L559,465,156,9,9,9,牛肉 寿喜锅,116.3266008,40.02916434
30,111号打t(中关村店),火锅,中关村东路111号,895,127,8.8,8.8,9,金汤花胶鸡煲 手打牛肉丸,116.3272356,39.97113663
31,大利锅记,火锅,望京河荫中路东5号,321,129,9.1,9,9.1,镇店牛尾锅 招牌肥肠鸡锅,116.4767022,39.99525597
32,鲸鱼悦・鱼掌门鱼火锅(上地店),火锅,农大南路海阔信广场2-5号,379,117,9.2,9.1,9.2,整条斑鱼活鱼鲜切 椰子冻,116.3002509,40.02527045
33,鲜牛记潮汕牛肉火锅(亚运村店),火锅,慧忠北路安慧北里雅园1号楼,2206,118,9,8.8,8.9,吊龙 生牛肉丸,116.4061776,39.9971147
34,汕头八合里海记牛肉店(清河店),火锅,G6国道辅路小营桥红绿灯向北300米岔路内西三旗派出所旁,4871,124,9.2,9,8.5,手打牛筋丸 吊龙,116.3352387,40.03771738
35,重八牛府(双榆树店),火锅,双榆树东里15号北京一零一中学西门西行30米,6876,91,9.1,8.5,9.2,重八独家秘制牛丸鸳鸯锅 重八特色小料,116.2978182,39.99962934
36,成都葫芦娃一家人火锅(双井店),火锅,广渠路66号甲3号楼二层,1018,148,9.1,9.2,8.8,美容木瓜番茄锅 水上漂嫩牛肉,116.4584586,39.8900947
37,漫火锅(北京市百货大楼店),火锅,王府井大街255号北京市百货大楼6楼,11846,129,9.1,9.1,9.2,杨枝甘露 海虾,116.4046337,39.91221527
38,今儿明儿涮肉,火锅,十里河桥西北角十里河文化园A座四层,87,90,9.3,9.4,9.3,手切鲜羊后腿肉 呼伦贝尔极品羔羊腿肉,116.4516515,39.86575971
39,今半锄烧日式火锅自助(花乡奥莱村店),自助餐,南四环西路76号花乡奥莱村7号楼3层,1153,118,8.9,9.2,9.1,寿喜锅 牛肉,116.3174762,39.82602547
40,九万士多港式海鲜粥底火锅,火锅,丰科路丰台科技园万达广场金街3层3-317号,163,181,9.4,9.2,9.5,螃蟹 蛏子王,116.6371075,39.90449027
41,尽膳口福跷脚牛肉(合生汇店),火锅,广渠路西大望路21号,430,168,9.1,9.2,9.1,九秒牛肉 红糖糍粑,116.4726281,39.89274514
42,伊豆野菜村(大族广场店),日本菜,荣华南路与荣京东街交叉口大族广场T3楼2层F2-27号,590,157,9,9.1,9.1,牛上脑 寿喜锅菌汤锅,116.5069885,39.79037362
43,菜麻(劲松店),火锅,劲松南路劲松八区8号楼808室,838,75,7.7,7.5,7.8,特色牛肉 鸳鸯锅,116.4421468,39.88049392
44,日坛涮肉,火锅,日坛东路9号,3635,141,9.1,9.1,8.3,日坛烧饼 手切鲜肉,116.440242,39.91331916
45,者火・善造,日本菜,青年路朝阳大悦城7层拾间主题区内,879,240,9.1,9.2,9.3,寿喜锅 杏仁豆花,116.5130868,39.92387755
46,8号苑(西单总店),火锅,太仆寺街71号,1004,100,8.9,9.1,8.7,牛油鸳鸯锅底 凉面,116.3705524,39.91109318
47,斗川火锅(知春路店),火锅,北土城西路171号,1220,106,9.1,9,9.1,小酥肉 鲜鸭血,116.3558454,39.97549461
48,宣武小院涮肉,火锅,南菜园街53号,1183,88,9.1,8.2,8.5,招牌麻酱糖饼 精选手切鲜羊后腿,116.3476342,39.87069175
49,海塘海鲜自助餐厅,自助餐,王家园胡同16号1层,3500,209,8.8,8.6,9,阿根廷大虾 鲍鱼,116.4324426,39.92939463
50,木辛水水冰煮羊(长楹天街店),火锅,龙湖・长楹天街购物中心西区南侧商业街西区2层D222室,605,117,9.2,8.9,9.2,苏尼特羊肉 拉克申酱料,116.5937906,39.92403494
51,紫火锅(富力广场店),火锅,东三环中路65号富力广场10层,932,112,9,9.1,9,紫龙招牌老肉片 果冻鲜鸭血,116.4543878,39.89458515
52,葫芦娃牛板筋火锅(鼓楼店),火锅,大石桥胡同37号,1051,69,9,8.2,9,牛板筋火锅 小料,116.3834927,39.94535217
53,温野菜日本涮涮锅(朝阳大悦城店),日本菜,朝阳北路101号朝阳大悦城6F-06,1743,160,8.7,9,8.9,牛肉 寿喜烧,116.5124414,39.92319738
54,小红袍香港私房火锅料理(三里屯店),火锅,三里屯中国红街1号楼3层北侧,1449,366,9.1,8.7,9,金屋藏娇 蟹籽芝士墨鱼丸,116.4445159,39.93171571
55,伊豆野菜村(顺义店),日本菜,安泰大街6号院祥云小镇南区6号楼底商,3451,150,9,9.1,9,寿喜烧锅底 澳洲和牛上脑,116.5306754,40.08643647
56,蝎王府羊蝎子(虎坊桥店),火锅,虎坊路甲4号,7075,91,9.1,8.5,8,羊蝎子特大锅(麻辣) 羊蝎子特大锅(浓香),116.3788399,39.88717742
57,红辣椒(朝外店),火锅,朝外外交部南街联合大厦5层,1076,117,9.2,9.3,9.4,十八香小龙虾 鸳鸯锅底,116.4324126,39.92135866
58,桃山旬野菜村日式火锅(富力广场店),日本菜,东三环双井富力广场三层南侧,237,153,9,9,9.1,和牛上脑 寿喜烧,116.4543878,39.89458515
59,伊尹海鲜自助火锅(万丰路店),自助餐,万丰路526号伊尹海参馆首层,2109,285,9,9.1,9.1,澳洲甜虾 芝士h龙虾,116.2893591,39.87090769
60,五味缘钢管厂小郡肝串串香,火锅,东三环南路52号顺迈金钻商服22,764,83,9.1,9,9.1,麻辣牛肉 郡片,116.456194,39.8864905
61,鸦儿李记(和平里店),火锅,和平里西街67号,1766,90,9,8.6,8.5,手切鲜羊肉 芝麻烧饼,116.411837,39.95694123
62,一岚一山(角门总店),火锅,角门东里88号,2332,71,9.1,8.3,8.7,金牌鸡翅 冷锅串串,116.3722768,39.84654184
63,左庭右院鲜牛肉火锅(北京朝阳大悦城店),火锅,朝阳北路101号朝阳大悦城7层,2601,132,9,9.1,8.9,吊龙 牛肉丸,116.5130868,39.92387755
64,米亭味自慢料理(盈科中心店),日本菜,盈科中心工人体育场北路甲2号裙房一层106A单元,763,341,9.2,9.3,9.3,天妇罗虾拼盘 三文鱼大腹刺身,116.4532711,39.93162724
65,成都蜀大侠火锅(大望路店),火锅,朝阳西大望路友金大厦东100米,2094,136,9,9,8.8,巴蜀麻辣牛肉 冰川鹅肠,116.4727016,39.88351895
66,烹然四季椰子鸡火锅(高和萃东三环北路店),火锅,东三环北路甲26号高和萃2层,6579,149,8.9,8.9,8.5,竹荪椰子鸡 原味椰子冻,116.4561054,39.92717184
67,313羊庄・铜锅烀羊肉(王府井店),火锅,东华金街购物中心4层,2892,133,8.9,8.9,9,自制酸奶 果木碳烤羊肉大串,116.4048182,39.9090615
68,三味缘牛蛙火锅(马连道店),火锅,马连道南街2号院8号楼二层002,849,99,9.2,9.1,9.2,牛蛙 葱花饼,116.3230079,39.88306341
69,渝最火锅,火锅,学清路16号学知轩一层106,212,103,7.9,8.6,8.7,鲜鸭血 小酥肉,116.3468715,40.01062164
70,签王之王・王牌串串,火锅,崇文门外大街40号搜秀城2层,262,85,8.9,9,9,小郡肝 香菜牛肉,116.4131338,39.89521236
71,喜牛屋和牛寿喜烧(东直门店),日本菜,东直门内大街10号楼10-9室,381,150,9,9.1,9.2,霜降和牛寿喜烧 明太籽盐h土豆,116.4225487,39.93924061
72,丁卯涮肉(朝阳门店),火锅,朝阳门佳汇国际中心A座底商,404,135,9.1,9.1,9,丁卯京八件儿 麻酱糖饼,116.434809,39.92602978
73,313羊庄・铁锅烀羊肉(回龙观店),火锅,科星西路33号楼2层,590,103,9.2,9,9.1,羊排 羊腿肉,116.3501037,40.07556582
74,郭立杨家火锅(健德门店),火锅,北土城西路103号6号平房,91,103,8.5,9,8.8,杨家招牌毛肚 特制鸭血,116.3743969,39.97565007
75,高兴火锅(五道口店),火锅,成府路35号五道口东源大厦6层,85,87,9.1,9.1,9.1,高兴布袋 鲜虾滑,116.3304625,39.99204066
76,就这儿吃浓香牛肉火锅(银河大街店),火锅,鲁谷路与银河大街交汇十字路口东北角银河财智中心A座B1层139号,397,86,9.1,8.8,9.2,咖喱牛肉火锅 招牌牛肉锅,116.2158093,39.90380664
77,辣蜀宽巷,火锅,望京街与宏昌路交口望京西园4区402号楼2层商铺,440,67,9,8.8,9.1,冷锅串串香 金牌鸡翅,116.4659455,39.99775169
78,乾和元涮肉(亚运村店),火锅,亚运村安慧里一区14号楼底商4号,481,111,9.1,9.1,9.1,冰山牛舌 手切元宝肉,116.4091263,39.99074147
79,小行江湖老火锅,火锅,工人体育场北路三里屯SOHO2号商场西门2层2217,405,126,9,9.1,9,鸳鸯锅底 屠场鲜毛肚,116.4381647,39.9335945
80,鱼豆吉(望京店),火锅,望京街9号望京新城B区望京国际商业中心F座1层B111,400,94,9.1,8.8,9.1,豆浆锅底 清江鲢鱼,116.4764547,39.98835271
81,额尔敦传统涮(北影店),火锅,杏坛路40号3楼,477,99,9,9.1,8.9,额尔敦老料 大刀肋腹肉,116.3549983,39.96467641
82,北门涮肉(什刹海店),火锅,地安门帽儿胡同乙43号,5123,98,9,8.6,8.9,手切鲜羊肉 雪花肥牛,116.3923241,39.93511326
83,桃山旬野菜村日式火锅(凯德MALL店),日本菜,西直门外大街1号凯德MALL4层,934,158,8.6,9,8.6,寿喜锅 雪花霜降牛肉,116.346376,39.94028921
84,HI辣火锅(五棵松店),火锅,复兴路69号院2号058、059、060室,1981,125,8,7.9,7.8,手打芝士牛肉丸 招牌hi辣鱼,116.2716567,39.90793981
85,一串亦签,火锅,天华东路林肯公园C区东门财富茅台门前下沉广场B1层,324,66,9.2,9.1,9.1,串串 特色鸡翅,116.4875055,39.80458712
86,小龙坎老火锅(石景山店),火锅,石景山路21号,1702,138,9,9.1,8.8,红糖糍粑 麻辣牛肉,116.2915246,39.7977787
87,吃闹热串串火锅,火锅,工体北路新中西里26号,2640,99,9,9.1,9,冰粉 串串,116.4324002,39.9326181
88,马路边边串串香(角门店),火锅,马家堡东路7克拉底商,291,96,9,8.7,8.7,路边嫩牛肉 冒脑花,116.378703,39.83846972
89,有范儿串串香火锅(亚运村店),火锅,朝阳区慧忠北路,672,82,8.8,8.4,8.7,私房嫩牛肉 麻辣牛肉,116.4006058,39.9973322
90,火锅・茶憩(方庄时代店),火锅,方庄芳星园二区6号楼方庄时代广场4F,1084,143,8.9,9.3,9.2,大红袍珍珠奶茶 台式麻辣锅,116.4292043,39.86412156
91,优食堂・今晚吃鸡,创意菜,驼房营南路东风艺术区19号临街,325,107,9.1,9.3,9.1,重庆姑爷鸡 鲜牛肉,116.5030978,39.95534997
92,木辛水水冰煮羊(通州万达店),火锅,通惠南路万达金街B区2楼B3-219号,252,100,9.2,9.1,9.1,特色苏尼特羊羔肉 冰煮羊,116.6362868,39.9038511
93,一撇一辣串串香(长阳万科半岛店),火锅,广阳新路7号院3号楼2层3-217,143,58,9.2,9,9.3,金牌鸡翅 霸道小土豆,116.207056,39.75226142
94,太婆天府山珍酒楼(复兴门店),火锅,二七剧场路南口甲19号楼1楼,2163,108,9.1,7.8,8.1,乌鸡锅底 竹荪,116.3398811,39.90695715
95,M小买,日本菜,工体北路8号院三里屯SOHO2号商场B1层B1-237,2028,145,8.6,8.7,8.6,烤三文鱼蛋黄酱鱼籽饭 鳗鱼饭,116.4473515,39.9314176
96,竹叶涮肉坊,火锅,长青路88号院62栋,121,89,9.2,9,8.1,羊肉串 手切羊肉,116.1583568,39.80147795
97,佐冷馋・串串里(大望路店),火锅,南磨房路甲5号新华创意产业园,1277,106,9,9.1,9,串串 手工红糖糍粑,116.4692528,39.88376966
98,红中|宇宙中心的串串(五道口店),火锅,成府路35号东源大厦2层,2225,82,8.7,8.9,8.9,串串香 红糖冰粉,116.3304625,39.99204066
99,椰思・椰子鸡火锅,火锅,马连洼北路8号C座一层107,346,117,7.9,8.4,7.9,椰子鸡汤 原味椰子冻,116.287672,40.03324281
100,豆捞坊・胶原花胶火锅(来福士店),火锅,东直门南大街1号北京来福士4层,7871,124,8.8,9.1,8.4,美味鲜虾滑 菌王锅底,116.4260093,39.93874233
101,成都葫芦娃一家人火锅(好运街店),火锅,朝阳公园路好运街1号商铺C7单元28号,1837,147,9,9,8.8,美容木瓜番茄锅 九尺鸭肠,116.4651381,39.95028975
102,重庆地瓜老火锅(洋桥店),火锅,马家堡东路88号奇迹广场,617,117,9.2,9.4,9.4,地瓜老肉片 自助小料,116.3819041,39.84851245
103,北门涮肉(美术馆店),火锅,美术馆后街60号,1353,95,9.1,8.9,9,手切鲜羊肉 麻酱小料,116.4031882,39.92675723
104,辣府(五道口店),火锅,中关村东路东升大厦AB座3层SA-V-3单元,2602,136,8.6,8.7,8.3,雪花肥牛 鲜虾滑,116.3275911,39.99351439
105,香闺串香坞(宣武门店),火锅,头发胡同20号,803,110,9.1,9.2,9.1,香菜牛肉 牛油锅底,116.3673531,39.901214
106,羊火涮肉,火锅,黄寺大街15号佰隆大厦三楼,1434,119,9.1,9,8.6,手切鲜羊肉 鲜羊上脑,116.3827445,39.96193013
107,汕头八合里海记牛肉店(玲珑路店),火锅,八里庄玲珑路恩济西园10号楼东1门,2378,126,9.1,9,8.2,手打牛筋丸 潮汕炸腐皮,116.2765936,39.93103079
108,牛麒荟潮汕牛肉火锅,火锅,北苑红军营南路来广营政府对面,544,102,9.2,9.1,9.1,吊龙 手锤鲜牛肉丸,116.4150327,40.02689675
109,酚香港火锅料理(簋街店),火锅,东直门内大街5-10号东直门地铁A口西行300米,626,177,8.8,9.1,9,招牌椰子鸡 招牌胡椒猪肚鸡,116.4233148,39.93988059
110,巴蜀签火锅串串(方庄不夜店),火锅,芳古路芳群园二区16号,198,92,9.2,9.1,9.2,鸳鸯锅底 麻辣小牛肉,116.4245264,39.86174636
111,束河人家(南锣鼓巷店),火锅,北兵马司胡同17号,3298,157,8.8,9.1,8.7,香牛肉 包浆豆腐,116.3985816,39.93505339
112,菁喜老火锅(三里屯店),火锅,工体东路中国红街甲2-5号,482,124,9,9,9,炸酥肉 鲜鸭血,116.4447246,39.93124415
113,辣壹火锅(望京店),火锅,望京小街9号,67,98,9.4,9.3,9.3,毛肚 辣壹招牌锅底,116.4775148,39.9891418
114,香闺串香坞(西单四合院店),火锅,西单横二条大秤钩胡同13号,2278,111,8.8,9,8.6,鸳鸯锅底 腌制牛肉,116.3703702,39.90842279
115,313羊庄・铁锅烀羊肉(上地店),火锅,农大南路海阔商业广场,152,106,9,8.8,8.5,羊腿肉 自制果茶,116.2895107,40.02295966
116,康二姐串串香(三里屯总店),火锅,三里屯南甲34号院内,3193,79,8.7,8.4,8.2,脑花 串串,116.4462955,39.93467021
117,鲸一食堂(麒麟新天地店),日本菜,阜通西大街11号合生・麒麟新天地1层AF109,1399,99,8.3,8.5,8.4,招牌鸡碎饭 主打寿司,116.4717321,39.99581813
118,斗川火锅(石景山鲁谷店),火锅,鲁谷路136号紫御长安一层底商,127,113,9.1,9.2,9.1,斗川小酥肉 麻辣牛肉,116.2061427,39.90192112
119,来涮蜀串串香火锅(复兴门店),火锅,真武庙三条26号,1543,100,9,8.7,8.9,麻辣鸳鸯锅 麻辣牛肉,116.3436289,39.9028153
120,食潮汕头鲜牛馆,火锅,阜通西大街宝星华庭南门底商1楼101,507,99,9.2,9,9.1,手打鲜牛丸 吊龙,116.4737868,39.99752461
121,温鼎府(潮汕牛肉火锅),火锅,前门东大街前门23号院内,584,527,9.2,9.4,9.3,牛丸双拼 雪花匙仁,116.3974783,39.89920591
122,三味缘牛蛙火锅(三里河店),火锅,三里河东路11号,4042,92,9,8.7,9,牛蛙 干锅牛蛙,116.3380654,39.90833312
123,旮旯儿小串,烧烤,马家堡东路71号,75,57,8.2,9.1,8.8,烤鱿鱼 疙瘩汤,116.3801096,39.85031933
124,最牛喜事潮汕鲜牛肉火锅(和平里店),火锅,和平里东街13区4号楼西侧底商,1875,100,9.1,9,8.9,手打鲜牛肉丸 秘制沙茶酱,116.418946,39.95871429
125,小木船潮汕牛肉火锅(小屯路店),火锅,小屯路兆丰馨园东区,1282,112,9.1,9.2,9.2,吊龙 手锤牛肉丸锅底,116.2451032,39.89135788
126,芦月轩羊蝎子(管庄店),火锅,管庄东里中国建材研究总院院内,2623,83,9.1,8.8,8.7,普通羊蝎子 炸腐竹,116.5911996,39.91822921
127,三只耳河鲜馆(保利店),火锅,工体北路新中西里26号,8102,118,8.6,8.5,8.3,招牌冷锅鱼麻辣锅底 鲜鸭血,116.4324002,39.9326181
128,清真・又一斋老北京涮羊肉羊蝎子(鲁谷路店),火锅,鲁谷路与银河大街交叉口东北角银河财智中心A座B1层151-152号,123,81,8.4,7.6,8.3,精选羊肉 烤烧饼,116.2158093,39.90380664
129,北门涮肉(南锣鼓巷店),火锅,地安门东大街56-1号,4730,98,9,8.3,8.9,手切鲜羊肉 麻酱小料,116.3994437,39.93184348
130,小木船河鲜馆(上地店),火锅,马连洼北路竹园中街30号一层102,282,162,9.1,9.2,9.1,特色牛肉包 金沙江黄沙鱼,116.2758848,40.03124667
131,火锅・茶憩(龙德广场店),火锅,立汤路186号龙德广场F520,1175,150,8.9,9.3,9.1,热冬瓜大红袍 番茄牛膝骨锅底,116.40925,40.05905415
132,喵小姐串串香(望京店),火锅,阜通东大街花家地小区30号,986,69,8.7,8.6,8.5,串串香 解辣冰粉,116.4618879,39.97891356
133,谭记潮汕牛肉火锅(西直门店),火锅,交大东路66号院2号楼1层125-126号,180,78,8.8,8.7,9.1,双拼牛肉丸 嫩肉,116.3447909,39.94301286
134,功夫潮牛潮汕牛肉火锅,火锅,信息路19号,847,115,9.1,8.9,9,手打牛肉丸 雪花肉,116.305639,40.02915638
135,巷子深・~瓷涮肉,火锅,东三环南路劲松东口华泰饭店一层,941,103,9,9,9,手切鲜羊肉 麻酱,116.4530017,39.87895689
136,熬八年台湾火锅,火锅,三里屯路三里屯11号院3号楼一层N3-17及二层N3-28单元,521,163,8.3,9.1,8.9,福袋 血,116.4490941,39.93723697
137,今捞猪肚鸡椰子鸡锅物料理,火锅,好运街1-21号,5183,128,9,8.3,8.7,胡椒猪肚鸡 煲仔饭,116.4653399,39.94958126
138,蜀大侠火锅(朝阳门店),火锅,朝阳门外大街19号华普大厦二楼,338,128,8.6,9.1,8.7,贵妃牛肉 菌汤牛油鸳鸯锅,116.4330035,39.92335978
139,马路边边串串香(苏州街北京总店),火锅,苏州街29号,1251,97,8.6,8.1,8.1,路边嫩牛肉 经典锅底,116.2967927,39.97893047
140,铜景大院老北京铜锅涮肉,火锅,东三环南路3号4层,588,104,8.8,9,9,手切羊后腿 麻酱小料,116.4547634,39.89128858
141,桐记小灶儿牛板筋火锅(悠唐购物中心店),火锅,朝外南街三丰北里2号楼悠唐购物中心4层001号,2687,108,9,9,8.9,泡菜牛板筋火锅 香酥泡饼,116.4332323,39.92036032
142,日坛涮肉(金融街店),火锅,金城坊街5号,632,154,8.8,9.1,8.5,鲜切羊肉 麻酱小料,116.3569557,39.91534093
143,丽江庭院之爱在路上(西单店),火锅,大酱坊胡同7号,8530,159,8.5,9.1,8.8,斑鱼片 芝士丸,116.3687759,39.91740708
144,耙耙牛・不一样的重庆火锅,火锅,朝阳区常通路1号楼龙湖长楹天街购物中心后商业街西区一层D108,57,88,9.1,9.1,9.1,牛肉 牛筋,116.5898236,39.92404026
145,沈氏串串香??铜炉蛙锅(世纪金源店),火锅,金源时代商务中心二期1F底商,193,69,8.9,8.6,8.7,秘制麻辣牛肉 香菜牛肉,116.2831765,39.959888
146,米亭味自慢料理(乐成店),日本菜,东三环中路20号乐成中心Space3-8三层,169,268,9.2,9.4,9.3,串烤牛舌 大明虾天妇罗,116.4563782,39.89356258
147,友乐园涮肉坊(西直门店),火锅,北礼士路101-3号,765,96,8.7,7.6,7.8,鲜羊肉 酸梅汤,116.3469276,39.93351058
148,和合四季椰子鸡火锅(五棵松店),火锅,玉渊潭南路凯迪拉克中心北门对面瑞丰园美食新天地二楼,5225,127,8.6,8.9,9,椰子鸡锅 珍珠马蹄,116.2752789,39.90911806
149,渝幺婶串串香・段友根据地(五道口店),火锅,东王庄甲1号,1559,82,9,8.8,8.7,冷锅串 杠上脑花,116.4007581,39.90319598
150,温野菜日本涮涮锅专门店,日本菜,远大路1号世纪金源购物中心五层E段5410,1395,163,8.5,8.8,8.7,澳洲牛肩肉 寿喜烧,116.2820692,39.95758349
151,牛村来人潮汕鲜牛肉火锅(西单店),火锅,宣武门内大街1号西单十字路口南行100米路西,4075,123,9,8.7,8,手打生牛肉丸 吊龙,116.3665862,39.90936459
152,悦膳重庆火锅,火锅,管庄路150号院未来城A座A111Y,41,69,8.8,8.9,8.6,嫩滑牛肉 辣牛肉,116.5812798,39.94394594
153,王家渡火锅(金宝汇店),火锅,"金宝街88号金宝汇购物中心一期6层603室,605室,606室",1536,165,9,9.2,9.1,番茄锅底 自制虾滑,116.4152754,39.91379071
154,胖哥俩肉蟹煲(五道口店),火锅,成府路29号A-3-1号商铺,3367,79,8.8,8.6,8.2,招牌肉蟹煲 鸡爪煲,116.3323612,39.99180537
155,葱葱那年串串香火锅(望京总店),火锅,阜通东大街金兴路6号,335,78,8.7,9.1,9.1,鸳鸯锅 麻辣嫩牛肉,116.4693514,39.98557992
156,京涮铜锅涮肉(华贸店),火锅,西大望路与朝阳路交叉口向南200路西,606,102,9.1,9.1,9.1,京涮芝麻烧饼 锡盟羔羊肉,116.4718493,39.91306921
157,鼎鼎香(北京SKP店),火锅,建国路87号北京SKPD区6层,1606,260,8.2,8.8,7.8,麻酱小烧饼 肉骨茶汤底,116.4722062,39.90782307
158,WALA  蛙辣火锅,火锅,工人体育场西路6号,1760,198,8.3,9.1,8.1,麻辣牛蛙 虾滑,116.4381522,39.92789255
159,串局儿・串串香火锅,火锅,青年路姚家园113号,357,102,8.3,9.1,8.9,八秒牛排 串串,116.5115473,39.9261539
160,京涮铜锅涮肉(马连道店),火锅,马连道南街2号院8号楼A座2层,787,98,9,9.1,9,苏尼特羔羊肉 芝麻烧饼,116.3230079,39.88306341
161,王缸钵重庆老灶火锅(霄云路旗舰店),火锅,东三环霄云路15号,605,151,9,9,8.8,麻辣牛肉 酥肉,116.4603955,39.95943083
162,老门框爆肚涮肉(五棵松清真蓝港店),火锅,玉渊潭南路中铁股份有限公司西边C座2层207,289,98,9,9.1,8.9,鲜牛百叶 现炸辣椒油,116.3016307,39.91172547
163,来涮蜀串串香火锅(西单店),火锅,西绒线胡同17号,1226,102,9,8.9,9,麻辣鸳鸯锅 麻辣牛肉,116.3754166,39.90302777
164,小红门港式海鲜火锅(永安里店),火锅,永安东里甲3号,494,312,9.3,9.1,9.2,花胶海味浓鸡汤 招牌雪花牛肉,116.4437119,39.90428627
165,高兴壹锅潮汕鲜牛肉火锅(霄云路店),火锅,霄云路35号,383,103,9.2,8.9,9.1,吊龙 手锤牛丸锅,116.4556092,39.9555981
166,小B柑串串香(食宝街店),火锅,善缘街中关村大街15号食宝街二期二层,120,78,9.1,9.1,8.6,香油蒜泥 麻辣牛肉,116.3085124,39.97950787
167,黄门老灶火锅(方庄店),火锅,群星路芳群园四区6号楼,513,111,9,9,8.7,黄门嫩牛肉 绿色毛肚,116.4220428,39.85967819
168,冯三怪烤羊蝎子,烧烤,河荫中路3号,422,102,9.1,9,8.9,烤羊蝎子 蹄款鸡,116.4651944,40.00415556
169,太婆天府山珍酒楼(亚运村店),火锅,慧忠北路231号,1030,119,9.1,8.5,8.4,乌鸡 竹荪,116.4074178,39.99745299
170,有范儿串串香火锅(枣园店),火锅,枣园路22号,21,67,8,8,8,鸡肉串 麻辣牛肉,116.3211853,39.75413483
171,大成盛天楼,火锅,东大桥路世贸天阶北街4层,26,117,8,8.1,8.3,鲜羊肉 上脑肥牛,116.4460659,39.91570744
172,斗川火锅(三元桥店),火锅,新源街18号,767,120,8.2,8.4,8.8,现炸酥肉 麻辣牛肉,116.4483782,39.9503782
173,鸳鸯渡・正宗重庆火锅(健德门店),火锅,牡丹园北土城西路105号,622,116,8.8,8.6,8.9,现炸酥肉 大刀鲜毛肚,116.3735719,39.97575431
174,斗川火锅(四道口店),火锅,学院南路33号院,397,109,8.7,9.1,8.9,小酥肉 鲜鸭血,116.3380624,39.95949578
175,渝家小厨重庆老灶火锅,火锅,远安路望京东园七区8-8,489,91,8.2,8.3,8.5,精品嫩牛肉 油炸酥肉,116.4840697,39.99707528
176,阳坊胜利涮羊肉(昌平店),火锅,燕平路东关商贸楼6号,67,87,7.7,7.6,7.8,手工现切羊腿肉 局气牛羊双拼,116.2383283,40.21349342
177,谷雨(望馨商业中心店),火锅,望京望馨商业中心2层211室,459,85,8.4,8.3,8.6,谷雨牛蛙锅 五香豆腐丝,116.456057,40.00762099
178,来涮蜀串串香老灶火锅(菜市口店),火锅,西草厂街椿树园小区16号楼底商,671,104,9.1,9.1,9,串串 麻辣鸳鸯锅,116.371628,39.89157916
179,南城小刘涮肉,火锅,阡儿胡同和大川二巷交叉口把口,1691,98,9.1,7.2,7.7,手工切鲜肉 铜锅涮肉,116.3817732,39.8862436
180,名鼎阁自助火锅烤肉(望京店),自助餐,南湖中园211号楼2-3层211-3内,3226,92,8.5,8.5,8.6,纯羊肉串 秘制牛肉,116.4561267,39.99939044
181,乐游串串香火锅,火锅,东三环南路13号,1015,88,9,8.9,9,重庆嫩牛肉 鸳鸯锅底,116.4545514,39.87833981
182,来涮蜀串串香火锅(宣武门店),火锅,宣武门西大街乙6号,1654,103,9.1,8.6,8.9,麻辣鸳鸯锅 鲜鸭血,116.3625921,39.89735505
183,小龙坎老火锅(工体店),火锅,工体东路乙2号,2241,149,8.7,8.8,8.5,精品千层毛肚 红糖糍粑,116.4541256,39.93223307
184,辣壹火锅(木樨园店),火锅,南三环中路珠江骏景北区底商2号楼101号,32,116,9.2,9.2,9.2,毛肚 一米羊肉,116.3904519,39.85414662
185,七八冷面(远大路店),韩国料理,远大西路远大园二区甲1号楼102,4019,72,8.8,8.8,8.6,正宗朝鲜现压冷面 七八烤串,116.275326,39.95437228
186,三屿亭・寿喜烧(朝外店),日本菜,朝阳门外大街19号华普大厦东端福满格美食广场入口三层,83,150,8.9,9.2,9.1,雪花牛肉 经典刺身拼盘,116.4330035,39.92335978
187,京虎门爆肚涮肉(宋家庄店),火锅,宋家庄地铁站C出口向东600米京虎门,1260,105,9.1,9.1,8.7,羊肉 麻酱,116.421742,39.84159124
188,黄门老灶火锅(双井旗舰店),火锅,百子湾路37号,5528,136,9,8.5,8.6,鲜鸭血 黄门嫩牛肉,116.4568678,39.89958046
189,粤盛祥古法打边炉,火锅,曙光西路UHN国际村南门,1387,116,8.9,8.4,8.8,烤乳鸽 雪花,116.443858,39.96658532
190,葱葱那年自助串串香火锅(霄云路店),火锅,霄云路15-3号,2232,77,8.7,8.9,8.8,串串香 鸳鸯锅底,116.4610518,39.95997372
191,北华涮肉小院(西苑店),火锅,二龙闸路西苑桥桥西100米,458,87,8.9,8.7,8.6,手切鲜羊肉 麻酱,116.2798088,39.9953457
192,小西街八十号(日坛店),火锅,神路街39号日坛上街1-27号,2259,141,9,9.1,9,鲜毛肚 鲜鸭血,116.4378588,39.91800157
193,串串江二娃串串香(长阳店),火锅,京良路首开熙悦汇商场一层,3,141,7.3,7.3,7.3,藤椒牛肉 麻辣牛肉,116.2050812,39.76120947
194,添椒火锅(三里屯店),火锅,南三里屯路1号通盈中心4层4-5室,1447,146,9,9.2,9,阿坝州毛肚 招牌手打虾滑,116.4488118,39.93078739
195,井格重庆火锅(五道口店),火锅,成府路29号五道口国际食尚苑,1098,121,9,8.4,8.7,鲜鸭血 井格毛肚,116.3323532,39.99204416
196,京门老爆三(亦庄店),火锅,亦庄镇晓康东里三羊生活广场4楼,819,100,9.1,9.1,8.8,水爆羊肚丝 手切精选羊腿肉,116.5204774,39.82119248
197,古铜老院爆肚涮肉(双井店),火锅,东三环南路48号,1765,107,9,8.8,8.4,手切鲜羊肉 铜锅涮肉（鸳鸯）,116.4559012,39.88798217
198,铁瓷涮肉(云岗店),火锅,云岗路148号,76,102,9,9,8.8,铁瓷滩羊肉 芝麻烧饼,116.1640925,39.80657482
199,馋爷・铜炉蛙锅(三里屯店),火锅,三里屯路33号3.3大厦四层4007室,470,118,7.8,8.3,7.9,香辣虾邂逅蛙 肥肠牛蛙锅,116.4485803,39.93549677
200,小龙坎老火锅(方庄店),火锅,方庄芳古园一区29号楼二层,1229,144,8.8,9.1,8.7,鲜毛肚 红糖糍粑,116.4186214,39.86472891
201,一夜串红串串香,火锅,百子湾西里甲108号楼1层,1391,68,8.7,9,8.9,夺命牛肉 红糖糍粑,116.4931039,39.89842137
202,钢管厂五区小郡肝火锅串串香(工体店),火锅,工人体育场东路中国红街1号楼3层,338,111,8.7,8.4,8.4,特色小郡肝 麻辣牛肉串,116.4445159,39.93171571
203,蜀渝你的串说(林大店),火锅,清华东路35号林业大学科贸楼一层102号,715,67,9.1,9.1,9.1,红糖糍粑 高汤串串,116.3392251,39.99964145
204,鸦儿李记(花市店),火锅,西花市大街80-3,918,56,8.8,8.5,7.9,芝麻烧饼 羊肉串,116.41727,39.89562273
205,斗川火锅(鼓楼桥店),火锅,旧鼓楼外大街68号,963,119,9,9.1,9.2,小酥肉 麻辣牛肉,116.3878073,39.9485338
206,有范儿串串香火锅(丰益桥店),火锅,丰管路甲一号,1677,78,8.9,8.7,8.8,麻辣牛肉串 麻辣牛肉,116.308183,39.85695792
207,喜洋洋老北京涮肉,火锅,北洼路南口90号平房,145,76,9.2,8.1,9.2,高钙羊肉 芝麻酱,116.2953911,39.92453419
208,泉月火锅(艺海国际店),火锅,皂君庙路2号艺海国际商务会馆,752,117,9,9.3,9.1,原味嫩牛肉 手切鲜羊肉,116.3291325,39.96254315
209,有范儿串串香火锅(北苑店),火锅,北苑路18号院3号楼1层1-101号,283,80,8.8,8.5,8.9,麻辣牛肉 鸡肉串,116.4079842,40.04222197
210,串巷子串串香,火锅,石佛营路16号院1号楼101内107,225,66,9,8.9,9,冷锅串串 红糖糍粑冰粉,116.4961466,39.92732946
211,卜算子・重庆老灶火锅(石景山鲁谷店),火锅,鲁谷路紫御长安136号二层,60,81,9.1,9.1,9.1,算子嫩牛肉 现炸酥肉,116.2061427,39.90192112
212,老诚一锅(五棵松店),火锅,西四环金沟河东路9号,1075,101,9.1,8.7,8.9,羊蝎子 金银馒头,116.2723686,39.9167122
213,正清园涮肉,火锅,玉带河东街346号,92,86,9.1,9,9,手切鲜羊菲力 虾滑,116.6609153,39.89873354
214,阿丽斑鱼庄(永定路店),火锅,永定路88号西点茂商场3层,2010,108,9,9,8.4,斑鱼片 丽江捞汁鱼皮,116.2591911,39.90405533
215,火锅・茶憩(大兴绿地缤纷城店),火锅,金星西路5号15号院1号楼群绿地缤纷城Ⅱ期3层28、29号,890,136,9,9.2,8.8,大红袍鲜奶盖茶 台式麻辣锅,116.3262742,39.76321639
216,K泰??泰式火锅??冰城烧烤,火锅,百子湾路29号,1430,152,8.5,8.7,8.1,冬阴功锅底 椰奶冻,116.4703533,39.89942257
217,小龙坎老火锅(东直门店),火锅,东直门内大街258号,1236,142,8.6,8.6,8.6,红糖糍粑 冰球鹅肠,116.4123309,39.93940911
218,常赢三兄弟涮肉(燕莎店),火锅,三元东桥三源里小区21号楼,1211,121,9,7.8,8,烤羊肉串 铜锅涮肉,116.4487551,39.95104375
219,黑武士・正宗台湾火锅,火锅,西大望路1号温特莱中心A座底商103,610,214,9,9,9.1,芋头排骨麻辣鸳鸯锅 炸油条,116.4706531,39.91204358
220,火炉火(东源大厦店),日本菜,成府路35号东源大厦6楼西侧,12727,85,8.6,8.4,8.3,芝士 金枪鱼饭团,116.3304625,39.99204066
221,黄门老灶火锅(工体直营店),火锅,工人体育场北路50号,545,125,9,9.1,8.8,黄门嫩牛肉 大脸毛肚,116.4394883,39.93024706
222,新辣道鱼火锅(九龙山合生汇店),火锅,西大望路和广渠路交叉口东北角合生汇商场5楼,747,106,9,9,9,蔬菜自助 红汤梭边鱼锅,116.474136,39.89277242
223,唇辣号重庆老火锅(双榆树店),火锅,中关村双榆树街道知春里九号楼东侧,528,114,9,9.1,9.1,巴蜀嫩牛肉 鸭血,116.3142501,39.97158287
224,京门七品鱼(方庄店),火锅,芳群路芳群园2区甲20号楼,297,78,8.7,8.3,8.6,贴饼子 豆腐,116.4210913,39.86105128
225,肆月河豚??原河豚先生(龙德广场店),自助餐,立汤路186号龙德广场5层,734,183,8.2,8.7,8.9,红烧河豚 豚鱼佛跳墙,116.4090505,40.05788465
226,小红门港式海鲜火锅(丽都店),火锅,芳园西路2号2楼和乔丽晶西门对面,119,316,9.2,9.1,9.3,海味浓鸡汤 招牌雪花牛肉,116.4766431,39.97423801
227,京城第一羯(西城店),火锅,前门西河沿街67号,1249,83,9,7.7,8.1,羊蝎子羊排 老北京羊蝎子,116.38712,39.89785111
228,京虎门爆肚涮肉(角门东店),火锅,角门北路6号衡水大厦底商,486,92,9.2,9.1,9,手切鲜羊后腿肉 水爆鲜牛百叶,116.3765867,39.84818235
229,重庆地瓜老火锅(广渠门店),火锅,广渠门内大街80号通正国际大厦2楼（麦当劳东侧）,460,123,9,9.1,9.1,地瓜老肉片 鲜毛肚,116.4224484,39.89150057
230,王家渡火锅店(棕榈泉店),火锅,朝阳公园南路8号棕榈泉生活广场3楼,3258,156,8.8,9,8.4,番茄锅底 自制虾滑,116.4725707,39.93119438
231,鲜牛记潮汕牛肉火锅(朝阳旗舰店),火锅,西大望路甲23号珠江帝景B区中国银行东50米,1927,135,8.9,8.7,8.4,吊龙 牛筋丸,116.471674,39.89045029
232,醉麻辣(中国红街店),火锅,工体东路丙2号中国红街美林大厦6号楼2层206,2667,92,8.8,8.8,8.5,老妈蹄花 冒脑花,116.4444409,39.93007662
233,烹然四季椰子鸡火锅(乐成中心店),火锅,东三环中路20号乐成中心Space3二层,280,137,8.5,9,8.8,文昌鸡 原味椰子鸡,116.4563782,39.89356258
234,小木船潮汕牛肉火锅(上地店),火锅,马连洼北路与竹园中街交叉口西山华府30号楼一层102号,995,109,8.9,9.1,9,手捶牛肉丸锅底 吊龙,116.2744248,40.03202636
235,朝江红重庆老灶火锅(石景山盛景国际店),火锅,石景山路八角盛景国际B1,115,101,9.1,9.1,9.2,朝江红招牌红油锅 自制手工鲜虾滑,116.1949805,39.9069344
236,和记潮汕牛肉火锅(总店),火锅,利泽西二路314号二层,1130,121,8.9,8.9,8.7,吊龙 生牛肉丸,116.4569315,40.00812565
237,川成串 串串香火锅(磨房北里店),火锅,磨房北里215号楼川成串,2562,86,9,8.9,8.9,牛肉串 麻辣锅底,116.4654269,39.88125255
238,鲜牛记潮汕牛肉火锅(东直门店),火锅,东直门外大街42号宇飞大厦2层,982,122,8.8,8.9,8.7,吊龙肉 雪花牛肉,116.4312018,39.93874627
239,汕头八合里海记牛肉店(国贸店),火锅,双井桥百子湾路37号,2170,124,9,8.3,7.8,手打牛筋丸 吊龙,116.4568678,39.89958046
240,港牌坊打边炉・花胶鸡火锅,火锅,百子湾路29号,195,189,8.7,8.4,7.9,花胶鸡锅底 精品肥牛,116.4703533,39.89942257
241,高兴壹锅潮汕鲜牛肉火锅(北京总店),火锅,太平桥路44-1号,1860,110,9.1,9.1,9.2,现打生牛丸 潮汕炸腐皮,116.3120851,39.88273207
242,蜀签传成都串串(崇文门店),火锅,崇文门外大街11号,1509,73,8.8,8.3,8.4,招牌串串 冒鸭血,116.4119826,39.89313923
243,愚掌门鱼火锅(西坝河店),火锅,西坝河七圣路光熙门北里甲26号,1955,107,8.8,8.4,8.2,招牌斑鱼片 酸菜斑鱼锅,116.4293881,39.96578133
244,大鱼海塘,火锅,崇文门外大街搜秀商城7层,587,86,8.8,9,9,巴沙鱼 大鱼海塘锅,116.4129823,39.89510878
245,重庆地瓜老火锅(陶然桥店),火锅,南二环金泰绿洲酒店一层,760,128,9.1,8.8,8.9,地瓜老肉片 鲜毛肚,116.3800736,39.86869935
246,大成醉串串(蒲黄榆店),火锅,芳古园一区29号蒲黄榆地铁F口旁边,1106,61,9,8.2,8.3,串串儿 水果冰粉,116.4217217,39.86501252
247,小渝府的串,火锅,学院南路51号,617,62,9,9,9,冷锅串 冒脑花,116.3309954,39.95663917
248,102蹄花火锅(苏州桥店),火锅,北三环西路甲60号,1569,72,9,8.8,8.9,木瓜猪蹄锅 鲜虾滑,116.3087984,39.9630419
249,虎鸽传奇手抓海鲜,烧烤,头发胡同18号,754,132,8.7,8,8,红烧脆皮乳鸽 传奇土豆片,116.3676421,39.90117581
250,重庆疯子火锅,火锅,裕安路16号,392,92,9.1,9,9.1,疯子嫩牛肉 屠场鲜毛肚,116.5381096,40.09571652
251,大成醉串串(双井店),火锅,东三环中路55号富力城B区西区星光大道商业街16号,546,78,9,8.7,9.2,琅琊土豆 红糖糍粑,116.5226257,39.91516207
252,大成串串香(大成路店),火锅,大成路青塔大成里芳园4号楼,560,85,8.8,8.9,8.7,卡通牛油锅底 麻辣牛肉,116.25307,39.88854119
253,有范儿串串香火锅(通州土桥店),火锅,砖厂南里40号楼1层101号,125,88,8.3,8.5,8.8,私房嫩牛肉 麻辣牛肉,116.6921348,39.87101034
254,鱼之椒(西四店),火锅,西四南大街34号,486,90,9.1,8.4,8.6,椒麻鱼锅 杏仁豆腐,116.3674994,39.92037729
255,福口居(北太平庄店),火锅,北太平庄北三环中路40号,5864,80,8.4,8.2,8.4,秘制酸梅汤 极品羊肉,116.3576506,39.96412875
256,码头汇,火锅,太平桥大街248号,723,102,9.1,9,8.8,巴掌毛肚 武隆红苕粉,116.3602846,39.9079586
257,菜町寿喜烧(世贸天阶店),日本菜,光华路世贸天阶北楼2楼206,114,125,8.3,8.6,8.2,菜町特色寿喜烧 朝一鸡蛋,116.4465583,39.91549145
258,深夜在成都??串串香,火锅,成府路华清嘉园1号楼底商,1438,73,8.6,9,8.4,特色串串 狼牙土豆,116.3305401,39.99096739
259,菁喜老火锅(望京店),火锅,河荫中路东2号,2027,124,8.7,8.9,8.7,毛肚 现炸酥肉,116.4658669,40.00406358
260,八月半酸汤火锅(望京店),火锅,望京西路41号梦秀欢乐广场4楼,696,124,9,9.2,9.1,酸汤锅底 鸭嘴鱼,116.450689,39.99319372
261,银滩金汤・密味(三里屯soho店),火锅,工人体育场北路8号三里屯soho二号楼三层311-312号,1426,157,9.1,8.9,9.1,竹荪 鲜活鲍鱼,116.4266627,39.92089596
262,黄门老灶火锅(簋街店),火锅,东直门内大街232号,1606,118,8.8,8.2,8.4,嫩牛肉 屠场鲜鸭血,116.413422,39.93940996
263,蓝钻美食自助・海鲜自助火锅,自助餐,鲁谷路74号瑞达大厦3楼,8252,128,7.9,8.1,8.3,酥皮奶油蘑菇汤 菲力牛排,116.2392856,39.90188012
264,马西里厕所串串,火锅,天奕美食城地下一层,658,71,8.8,8.6,9.1,秘制牛肉串 冒脑花,116.359222,39.84378796
265,齐海鱼圣,火锅,四惠桥东通惠河畔南岸环岛处西南角,2426,125,8.9,8.9,8.9,石斑鱼丸 石斑鱼骨汤锅底,116.4863542,39.9069269
266,京西第一涮(云岗店),火锅,长青路佃起村文化活动中心南行100米,619,95,9.1,9,8.5,羊肉串 精选羊肉,116.1699734,39.79558833
267,蛙迪卡烹蛙馆・火锅(巨山店),火锅,巨山路21号,76,85,9.1,9.1,9.1,馋嘴蛙 小龙虾,116.220676,39.9477326
268,沸炉鲜货火锅・小龙虾(港龙店),火锅,回龙观西大街港龙商业街18号,2862,97,9,9,9,金牌毛肚 现炸小酥肉,116.2981421,40.0888252
269,重庆渝善老火锅,火锅,西花市大街126号速8酒店四层,602,113,8.8,8.7,8.7,麻辣牛肉 鲜毛肚,116.413739,39.89557295
270,有范儿串串香火锅(刘家窑店),火锅,南三环东路25号,1195,76,9,8.3,8.6,鸳鸯锅底 麻辣牛肉,116.4198478,39.8574122
271,蜀一数二,火锅,百子湾路29号院内,409,71,9.2,9,9,特色小土豆 冷吃牛肉,116.4731667,39.89939707
272,老门框爆肚涮肉(金宝街店),火锅,金宝街东段59号,683,116,8.8,7.9,8.1,爆肚 老门框手切鲜肉,116.4232466,39.9144202
273,FROM FARM八亩农场(三里屯店),日本菜,三里屯北路19号太古里南区3楼,3780,135,8.5,8.6,8.5,胶原蛋白鲜蔬美人锅 白胡椒超美人锅套餐,116.4485519,39.93396491
274,王家渡火锅店(悦荟万科广场店),火锅,南环路10号院1号楼悦荟万科广场7层,1568,125,9,9.1,8.7,自制虾滑 鸳鸯锅底,116.2330874,40.21084826
275,三公潮汕鲜牛肉火锅,火锅,工人体育场北路世茂工三13号院1号楼底商,945,127,9.1,8.3,8.6,潮汕牛肉丸 吊龙伴,116.4431334,39.93465815
276,有范儿串串香火锅(五道口店),火锅,展春园西路2号蓟鑫大厦内南侧一层拐角处,140,76,8.9,8.2,8.3,麻辣牛肉 私房嫩牛肉,116.3338847,39.98690966
277,假如在成都森林烧烤(朝阳店),烧烤,东四环中路东区国际东门南行30米,547,86,8.2,8.5,8.5,羊肉串 烤五花肉,116.4825175,39.91229971
278,怡园四季椰子鸡火锅,火锅,朝外大街中骏世界城E座3楼,1586,135,8.1,8.8,8.5,椰子鸡 椰子冻,116.4462377,39.91641716
279,小牛海记潮汕牛肉店(永定路店),火锅,永定路28号,886,100,9.1,8.9,9,手捶牛肉丸锅底 吊龙,116.2588173,39.91891073
280,快来椰子鸡火锅(北京apm店),火锅,王府井大街138号北京apmA区6层608,1398,125,8.3,8.8,8.5,腊味煲仔饭 手打牛筋丸,116.4051635,39.91244797
281,鲜潭蒸汽石锅鱼(龙德广场店),云南菜,立汤路168号,592,124,8.9,9.1,9,原汁原味锅底 江团,116.4086123,40.05879132
282,老诚一锅羊蝎子(王府井直营店),火锅,报房胡同101号,727,95,9,8.3,8.3,羊蝎子 抻面,116.4055571,39.92059217
283,乐吃串串锅(六里桥店),火锅,太平桥西路华源一里3号4号塔楼底商2号,703,80,8.7,9,8.7,香辣牛肉 毛肚,116.3088611,39.88094899
284,川成串 串串香火锅(西大望路店),火锅,西大望路27号院,220,82,9,9.1,8.8,鸳鸯锅 飘香牛肉,116.475558,39.88587768
285,阳坊大都涮羊肉(定慧寺店),火锅,阜成路定慧北里23号蓝宏中心东侧,927,106,9.1,9.1,9.1,大都招牌肉 手切鲜羊肉,116.2739408,39.92362046
286,沽酒小铺,火锅,宋庄镇小堡村国防艺术区内,263,67,9.1,9.1,9,焦香小土豆 干拌千层肚,116.7176698,39.95006436
287,锅说一次用油老火锅(五棵松店),火锅,复兴路69号院2号五棵松华熙LIVE・hi-up北区B1层151号,1667,140,8.6,8.5,8,比脸大的毛肚 霸道麻辣牛肉,116.2725555,39.90720979
288,京门老爆三(望京店),火锅,广顺北大街河荫中路2号,352,107,8.9,9,8.7,水爆牛百叶 羊肚领,116.4653799,40.00409719
289,德记・北京,火锅,延静里中街,183,95,9.1,9.1,8.9,串串 烤潮汕牛丸,116.4786844,39.91773254
290,源味屋韩式火锅&炸鸡,韩国料理,阜石路今鼎时代广场C座南侧底商,834,68,8.9,8.9,9.1,黄金芝士炸鸡 部队火锅,116.1893489,39.92452906
291,猪小爱野菜海鲜放题(槐房万达店),日本菜,南苑西路39号槐房万达广场一层珠宝区27号猪小,581,154,8.4,8.9,8.2,厄瓜多尔白虾 澳洲和牛,116.3615759,39.8131498
292,七八冷面(欢乐谷店),韩国料理,金蝉北路金蝉欢乐园2号院甲1号楼维吉奥广场1层,3123,58,8.7,8.6,8.6,正宗朝鲜冷面 七八羊肉串,116.4946707,39.86598336
293,鸭哒・鸭头火锅小龙虾(五道口清华店),火锅,双清路88号,832,90,8.7,9,9.1,鸭虾比翼锅 干锅鸭头,116.3285197,39.99513464
294,东来顺(朝阳双井店),火锅,东三环中路18号东环国际大厦3层,8347,100,8.5,7.9,7.9,羊肉双拼 传统秘制麻酱小料,116.4562673,39.89522664
295,清真・北纬三十六度火锅料理(望京店),火锅,望京北路望京华彩商业中心B1,351,108,8.9,9,9,自助小料 循化辣子纯红锅,116.4632101,40.00972652
296,花园老北京铜锅涮肉,火锅,利泽中街望京花园东区212号楼底商,474,95,9.1,8.5,9,精品手切鲜羊肉 精品羊肉上脑,116.4699735,40.00709762
297,常赢三兄弟涮肉(陆港城总店),火锅,朝阳北路陆港城一楼,1128,119,9.1,8.7,8.4,羊腱子 麻酱,116.5854763,39.92306401
298,兰亭猪手火锅,火锅,鼓楼东大街232号,3228,104,8.3,8.3,7.9,木瓜猪手锅 玉米,116.3924834,39.93908354
299,井格重庆火锅(国瑞城店),火锅,崇文门大街18号国瑞城购物中心3层,461,131,8.9,8.5,8.5,麻辣牛肉 井格双脆,116.4131003,39.89609987
300,九记牛f潮汕鲜牛肉火锅(西单店),火锅,西单北大街109号西单婚庆楼7层,369,121,9,9.1,9.1,吊龙 嫩肉,116.3665862,39.90936459
301,赤火锅 RED BOWL,火锅,呼家楼京广中心北京瑰丽酒店1楼,711,450,8.3,9.3,9,荔枝苏打水 蟹柳,116.4544819,39.91877622
302,三董小川堂串串香火锅,火锅,祁家豁子9号,583,80,9,8.5,8.6,麻辣嫩牛肉 红糖冰粉,116.3756264,39.97859287
303,凤王府成都火锅,火锅,杏石口路80号,702,127,9.2,9.3,9.2,嫩牛肉 王府赌场毛肚,116.2200461,39.95290397
304,彩云之巅蘑菇宴火锅,火锅,马连道路18号山水S酒店2层,76,113,9.1,9.2,9.2,清远鸡山珍宝 蘑菇汤,116.3215629,39.87549417
305,合喜庭院,火锅,庆园街12号,175,102,8.8,8.8,8.8,手工虾滑 毛肚,116.6289072,40.31093293
306,沸炉鲜货火锅・小龙虾(牡丹园店),火锅,花园路2号翠微百货西门往北20米,1963,113,9,8.9,9,金牌毛肚 现炸酥肉,116.360679,39.97584522
307,姚记羊蝎子(回龙观店),火锅,育知西路风雅园三区3号楼底商速8酒店楼下,1597,76,9.1,8.7,8.7,羊蝎子 自制豆腐,116.3195823,40.07874567
308,有范儿串串香火锅(科丰桥店),火锅,邻枫路5号地铁九号线科怡路站A出口西600米,549,79,8.5,8,8.2,私房嫩牛肉 掌中宝,116.2909765,39.82623672
309,前后涮羊肉(紫竹桥店),火锅,紫竹院路紫竹桥西青东商务区A座2层,651,127,9,9,9,沙葱羊肉 加钙羊肉,116.3036926,39.94036098
310,醉香苑老北京火锅(南新仓店),火锅,东四十条22号,2110,115,9,9.1,9,手切鲜羊肉 麻辣料,116.424969,39.93031168
311,银滩金汤・密味(四惠店),火锅,高碑店1118号惠河南街盛世龙源酒吧苑13号,997,216,9.3,9.1,9.1,竹荪 鲜活鲍鱼,116.5041619,39.9046501
312,亮健容天土锅羊蝎子(净土胡同总店),火锅,安定门内大街净土胡同8号,2310,86,9.2,7.9,8.7,羊蝎子 手工面片,116.3959313,39.94395416
313,阿易婆港式火锅,火锅,甜水园路甲1号南侧,576,315,9,9.1,8.9,花胶鸡煲 炸粟米,116.472461,39.9250043
314,泽成冰煮羊火锅(住总万科广场店),火锅,东马路万科广场5层F5014,288,87,9.1,9.2,9.1,羊肉串 血肠,116.4535538,39.80454914
315,甲丁-堤岸打边炉,火锅,酒仙桥路将台乡政府对面,768,131,8.8,8.1,8.7,牛肉丸 鲜虾,116.4829648,39.96747715
316,王家渡火锅店(奥运村店),火锅,北辰东路慧忠北里413号楼,3620,150,8.7,8.4,8,番茄锅底 自制虾滑,116.3973056,40.00137295
317,鲸一食堂(世贸天阶店),日本菜,光华路9号世贸天阶东广场,342,98,7.8,8.6,7.9,招牌温泉蛋牛油果 招牌鸡碎饭,116.4471861,39.91491776
318,东来顺饭庄(华龙街店),火锅,南河沿大街华龙街E座,4443,162,8.6,8.4,8.1,传统手切涮羊肉 传统羊肉串,116.4009282,39.91050361
319,诸鲜火锅自助餐厅(银座和谐广场店),自助餐,万丰路68号银座商城5楼,683,60,8.2,7.7,7.8,乌鸡肉卷 大虾,116.2906887,39.88081719
320,丽江庭院之午后阳光(朝内店),火锅,内务部街1号,4347,167,8.8,9.1,9,斑鱼片 芝士丸,116.4199399,39.9181973
321,天颐隆火锅店(石景山店),火锅,鲁谷东路30号,1280,100,9.1,8.9,8.9,蘑菇宴 烧饼,116.2277896,39.88901435
322,|T故事,火锅,西直门外大街18号金贸大厦A座B1层,1237,117,8.5,9,8.7,菌汤鸳鸯锅底 空运毛肚,116.3423846,39.93743141
323,食御三一八・烤涮一体,火锅,小汤山镇尚信村328号,174,122,9.2,9.1,9.2,精品手切牦牛肉 野生菌土鸡锅,116.3819215,40.13052715
324,朱题・猪手火锅(将台路店),火锅,将台路高家园二区进南门20米路东侧,1252,104,9.1,8.6,8.8,木瓜锅底 凝脂蹄花,116.4800038,39.9772548
325,田源鸡火锅(劲松桥店),火锅,南磨房路37号华腾北塘商务大厦-201室,2985,82,8.7,8.1,8.5,田源鸡 炸豆皮,116.4611544,39.88378814
326,小龙坎老火锅(常营店),火锅,朝阳北路常营地铁站C口东50米,199,122,8.7,8.6,7.6,鲜毛肚 冰球鹅肠,116.5759787,39.92730486
327,蜀千千串串香火锅(簋街店原东四店),火锅,东直门内大街160号,2385,92,8.6,8.4,8.4,麻辣牛肉 鸳鸯锅底,116.4181192,39.93942213
328,炎神・鲜牛肉火锅(亦庄店),火锅,天华东路亦庄林肯公园c区25号楼102室,868,120,9,9.1,8.7,鲜吊龙 鲜牛肉,116.4883956,39.803216
329,王家渡火锅店(亦庄店),火锅,亦庄经济技术开发区宏达北路18号大地大厦三层,2205,144,9,9,8.6,自制虾滑 番茄锅底,116.5051841,39.79635052
330,紫火锅(五棵松店),火锅,复兴路69号蓝色港湾购物中心北区6层,1241,122,9,9,8.6,紫龙招牌老肉片 鸳鸯锅,116.4676494,39.94809697
331,潮黄记潮汕牛肉火锅(常营店),火锅,常营地铁站C口东50米,494,130,9,9,9,手打生牛肉丸 吊龙伴,116.5759787,39.92730486
332,签上签串串香(石佛营店),火锅,八里庄北里129号院保利东郡9号楼底商9-6号,2531,89,9,8.9,9,串串香 招牌牛肉,116.4956183,39.92742553
333,鑫方老鸭汤火锅・羊蝎子(知春路店),火锅,罗庄西里7号楼,968,75,9.1,8.4,9,酸萝卜老鸭锅 内蒙羔羊,116.3383868,39.97217437
334,大牛悟・吊汤熟牛肉火锅,火锅,建外SOHO东区7号楼0714C,205,64,9,8.7,8.8,牛肉火锅 红烧牛肉小锅米线,116.4521448,39.90373878
335,唇辣号重庆老火锅(亦庄店),火锅,亦庄林肯公园B区10号楼107底商,412,132,9,8.8,9,巴蜀嫩牛肉 屠场鲜鸭血,116.4886902,39.80404641
336,蜀神砂器串串香(彩虹新城店),火锅,兴华北路二段78号院56号,427,89,9.1,8.9,8.7,蜀神鸳鸯锅底 香菜牛肉,116.3319442,39.7467051
337,香草香草云南原生态火锅(麒麟新天地店),火锅,阜通西大街11号麒麟新天地2层,2407,129,9,9.1,9,菌王奇香锅 建水香豆腐,116.4717321,39.99581813
338,芦月轩羊蝎子(劲松店),火锅,农光南里1号楼底商,741,90,9,8.9,8.8,羊蝎子小锅 小芦炸窝头,116.4560322,39.87839371
339,红火火美蛙鱼头,火锅,东直门外大街甲12号,316,113,8.5,9,9.1,招牌澳洲美蛙 酒酿小汤圆,116.4486235,39.93956744
340,杠上开花・串串香(五道口店),火锅,五道口成府路29号国际食尚苑1期3层-3,564,71,9,8.4,8.7,麻辣牛肉 冒千层肚,116.3323845,39.99200861
341,胖嘟嘟老火锅,火锅,南二环永定门桃园东里15号,89,106,8.6,8.7,8.8,鸭肠 红糖糍粑,116.3988914,39.87018747
342,HI辣火锅(大悦城店),火锅,朝阳北路101号朝阳大悦城7层,14042,131,8.4,8.2,8.3,hi辣鱼 水上漂牛肉,116.5130868,39.92387755
343,好巴适・龙门阵串串香(东直门簋街店),火锅,东直门内大街222号,1150,91,9.1,8.5,9.1,麻辣牛肉 蒜泥香油碟,116.414184,39.93938766
344,食神锅奉行(西单店),火锅,华远街9号 置地星座15-1号,635,567,8.9,9.1,9,阿根廷红虾 金汤王,116.3645853,39.90814466
345,鸦儿李记(银锭桥店),火锅,鼓楼烟袋斜街甲75号,243,96,8.9,8.7,8.5,手切鲜羊肉 羊肉串,116.3874532,39.93774158
346,小猫鱼捞(回龙观店),火锅,回龙观西大街聚乐汇18号东二层,506,96,8.8,9,8.5,涮乌鱼片 烤鹌鹑蛋,116.3267514,40.07745493
347,京虎门爆肚涮肉(广渠门店),火锅,广渠门内大街29号红都大厦2层,704,111,9,9,8.3,手切鲜羊后腿肉 水爆鲜牛百叶,116.4284876,39.89266182
348,黄门老灶火锅(亚运村店),火锅,慧忠北路慧忠里231号,1001,131,8.8,8.5,8.5,黄门嫩牛肉 极鲜鸭血,116.3996855,39.99758211
349,虾吃虾涮(国瑞购物中心店),火锅,崇文门外大街18号国瑞购物中心G楼,2576,89,8.9,8.5,8.5,招牌中锅虾 小料,116.4136408,39.89681833
350,一岚一山(公益西桥分店),火锅,马家堡西路32号院7号楼底商,136,67,8.6,8.5,8.9,金牌鸡翅 杠上脑花,116.365389,39.83803435
351,新辣道鱼火锅(国瑞购物中心店),火锅,崇外大街18号1幢,4716,117,8.7,8.6,8.4,红汤梭边鱼锅 太阳鱼籽虾滑,116.412897,39.89705169
352,巴蜀大当家老火锅(周庄嘉园旗舰店),火锅,小武基路10号,361,126,9.1,9.2,9.1,当家鲜毛肚 雪花肥牛,116.484615,39.86567429
353,鼎鲜渔掌门养生火锅,火锅,北土城东路惠新里248号,2196,96,9,8.7,9,鼎鲜招牌斑鱼片 海白虾,116.4149788,39.97595035
354,轻机厂小郡肝罐罐串串(五路居店),火锅,玲珑路恩济西园10号楼底商,132,99,8.8,8.5,8.4,麻辣牛肉 不老牛肉,116.2765936,39.93103079
355,芦月轩羊蝎子(刘家窑店),火锅,刘家窑横七条16号院3号楼,3832,81,8.9,8,8,普通羊蝎子 炸腐竹,116.4179798,39.85460268
356,尚尚仙??猪肚鸡火锅(华联万柳购物中心店),火锅,巴沟路2号华联万柳购物中心5层,130,105,8.3,8.8,8.1,尚尚仙胡椒猪肚鸡锅 水上漂嫩牛肉,116.2897705,39.97281252
357,唇辣号重庆老火锅(六道口店),火锅,清华东路艺海大厦1层,1234,104,8.9,9.1,8.9,孜然麻辣牛肉 屠场鲜鸭血,116.3435074,39.99888212
358,汉釜宫旗舰店(丽泽桥店),烧烤,西三环南路甲27号居然之家丽泽店5层,142,107,8.9,9,9.2,黑牛小排 辣味五花肉,116.3042598,39.87063396
359,43号铜锅涮府,火锅,广和东三路双花园南里三区23号楼底商102,186,104,8.8,9.1,9.1,内蒙现串羊肉串 手切鲜羊上脑,116.4523139,39.89835166
360,奇门涮肉坊(簋街总店),火锅,东直门内大街208号,1505,139,8.9,8.3,8.3,手切鲜羊肉 特色火烧,116.4151368,39.93944644
361,前后涮羊肉(志新东路店),火锅,志新东路14-2号,388,102,9,8.6,9,涮羊肉 麻将调料,116.3633007,39.99066786
362,京门七品鱼(通州店),火锅,芙蓉东路芙蓉园310号楼1层03号,266,84,8.8,8.7,8.8,贴饼子 江团,116.6828639,39.91787015
363,七八冷面(华宇店),韩国料理,中关村南大街2号华宇时尚购物中心1-2层夹层,3293,44,8.7,8.3,8.3,正宗朝鲜冷面 五花肉石锅拌饭,116.3173315,39.96414172
364,HAN JIMMY芝士铁板鸡(世界城店),韩国料理,金汇路9号中骏世界城D座B1层102A,591,86,8.5,9,9.2,春川铁板鸡 炸鸡,116.4457072,39.91630292
365,神仙渡串串香火锅,火锅,八棵杨北街首城国际底商,131,87,8.7,8.3,8.6,古法炸酥肉 肥牛片,116.4657211,39.88829901
366,山城辣妹子重庆火锅(呼家楼北街店),火锅,呼家楼北街甲2号楼,2866,103,8.8,8.3,8.5,麻团 辣火锅,116.4624047,39.92153302
367,唯真Coco・椰子鸡火锅,火锅,亚运村大屯北路金泉美食宫一层东侧,391,131,8.6,9.1,8.6,原文昌椰子鸡 椰子鸡火锅,116.4045668,40.00444277
368,鼎仙阁老鸭汤(新街口店),火锅,新街口东街西口新百商场北侧,1570,85,8.9,8,8.3,酸萝卜老鸭汤 竹荪,116.3663908,39.94007574
369,壹捞百味蘸料火锅(常营店),火锅,管庄路13号海天一色东侧底商,448,132,9.2,9.2,8.7,手工打牛肉 鱼籽鲜虾滑,116.5843976,39.92729756
370,签约成都串串香(西四店),火锅,西四南大街14号,1452,75,8.5,8.3,8.3,骨肉相连 红糖糍粑,116.3674929,39.92179315
371,四川仁火锅(双井店),火锅,八棵杨甲1号南,9667,105,8.4,8.3,8.1,肥牛 千层毛肚,116.4564344,39.89065936
372,首尔798韩国料理地区(五道口东源大厦店),韩国料理,成府路35号东源大厦3楼,4836,90,8.1,8.4,8.3,泡菜 铁板奶酪辣味鸡,116.3304625,39.99204066
373,热辣壹号(西单老佛爷店),火锅,西单北大街110号老佛爷百货5楼,5227,130,8.6,8.9,8.7,番茄三拼锅 麻辣牛肉,116.3687428,39.91283684
374,虾吃虾涮(大悦城店),火锅,青年路国美第一城餐饮街2号院九号楼底商,1037,89,9.1,8.9,9,招牌小锅虾 小料,116.5072919,39.93306723
375,老诚一锅(双井店),火锅,北京市朝阳区广渠路29号,1327,95,9,8.9,8.6,羊蝎子锅 葱花饼,116.4632795,39.89230015
376,蜀签传成都串串(交道口店),火锅,交道口南大街80号,1066,74,8.6,8.9,8.7,冷锅串串 琅琊土豆,116.4025882,39.93675761
377,有面儿串串香火锅(刘家窑店),火锅,芳群路芳群园四区6号楼底商,1485,85,9,8.6,8.8,麻辣牛肉 鸳鸯锅底,116.4220428,39.85967819
378,七只鱼粥庄(广式粥火锅),火锅,西二旗大街中恒博瑞底商39号-118室,1580,90,8.9,8.8,8.8,香港炸鱼皮 福气粥,116.3028716,40.05078013
379,串串金,自助餐,鼓楼东大街279号,2009,76,8.2,8.4,8.3,麻辣牛肉 掌中宝,116.3918219,39.93950532
380,钢管厂五区小郡肝火锅串串香(望京店),火锅,广顺北大街河荫中路东一号,77,101,8.2,8.5,8.3,特色小郡肝 特色泡椒牛肉,116.4659653,40.00405708
381,东来顺饭庄(中关村海淀大街店),火锅,中关村海淀大街34号海置创投大厦,6257,97,8.1,7.7,7.4,东来顺铜锅炭火涮羊肉 东来顺秘制麻酱,116.3017217,39.98082356
382,馋火蛙居麻辣啪啪屋,火锅,望京望花路东里7号,526,101,8.3,8.2,8.3,牛蛙火锅 麻辣啪啪小龙虾,116.4673738,39.98803412
383,FROM FARMV田农场(朝阳大悦城店),日本菜,朝阳北路朝阳大悦城6楼悦界内,1706,112,8.3,8.7,8.3,白胡椒超美人锅套餐 饭团,116.5130868,39.92387755
384,唇辣号重庆老火锅(五道口店),火锅,5道口双清路西王庄5号楼1楼,1721,103,9,9,8.9,巴蜀嫩牛肉 鲜鸭血,116.329063,39.99564281
385,313羊庄(天通苑店),火锅,天通苑北三区北门1号楼底商,287,92,9.1,8.7,9,羊肉 蔬菜拼盘,116.4269893,40.07361467
386,一品焖锅(回龙观店),火锅,育知东路30号院BHG Mall北京华联同成街购物中心3楼,427,92,8.4,8.5,8.3,虾滑 翅中,116.6459714,40.12700282
387,爱炉火锅HKHOTPOT(国贸商城店),火锅,建国门外大街1号国贸商城中区地下二层NB202,207,206,8.8,9.2,8.6,鲜虾丸 精品海鲜拼盘,116.4534338,39.91130567
388,蛙蛙叫干锅年代(东直门簋街店),川菜,东直门内大街288-6号,8999,96,8.4,8.4,8.2,干锅牛蛙 酸菜炒饭,116.4111307,39.93930725
389,四季大盘涮肉园(杨庄店),火锅,杨庄大街81号,1252,89,9.2,8.2,9.1,精选羊肉 手切羊上脑,116.1803223,39.91882777
390,渝味辣铺(亚运村店),火锅,大屯里107号,379,97,8.9,9.1,9.1,香菜牛肉 标准鸳鸯锅,116.4092496,40.00749775
391,南城儿卤煮・酱肉爆肚(丰台诺德中心店),小吃快餐,育仁南路1号院诺德中心3期16号楼2层206,180,50,8.3,8.6,8.4,百年老汤卤煮火烧 花毛共和,116.3047498,39.8241054
392,有范儿串串香火锅(马连道店),火锅,茶源路马连道南街6号院华睦大厦底商,753,79,8.6,8.2,8.4,极致牛肉 麻辣牛肉,116.3184688,39.88201234
393,谢记火锅(工体店),火锅,工人体育场内21号看台对面,2478,135,8.8,9.1,8.6,谢记嫩牛肉 鸳鸯锅红菌,116.4407227,39.92845326
394,宋记汕头牛肉火锅(健德门店),火锅,健翔山庄西门,1481,109,9.1,9,9,手锤牛肉丸锅底 招牌吊龙肉,116.3744874,39.97963379
395,蜀签传成都串串(小红门店),火锅,旧宫镇小红门路39号永辉超市一层S-47,805,75,8.8,8.8,9,冷锅串串 琅琊土豆,116.4485892,39.81297136
396,耕牛堂（Z）潮汕鲜牛肉火锅(金融街店),火锅,太平桥大街大街甲4号,697,125,8.8,8.5,8.2,吊龙 清汤,116.3587668,39.92162335
397,小岛海鲜自助火锅,自助餐,天宝北街1号,1873,84,8.2,8.4,8.4,大虾 鲍鱼 三文鱼,116.4824709,39.79520545
398,阳坊胜利涮羊肉(胜利总店),火锅,温南路10号阳坊商业街中段,3186,108,8.8,8,7.9,阳坊胜利涮羊肉 椒麻小烧饼,116.1356246,40.13863011
399,楠哥有肉(四合院店),火锅,东四十二条3号,344,94,9,8.6,8.5,手切鲜羊肉 秘制麻将小料,116.4191896,39.93378575
400,有面儿串串香火锅(丰科万达店),火锅,丰科路万达广场万达金街一层3-111,43,79,8.7,8.8,9.1,麻辣牛肉 麻辣锅底,116.2938989,39.82296504
401,常赢三兄弟涮肉(国贸店),火锅,百子湾路京粮大厦北侧,1327,118,8.8,7.8,7.6,手穿大串 极品羊腱子,116.4563482,39.89909224
402,牛羊坊 羊蝎子街边小串,火锅,西关路5号,351,64,8.4,9,8.5,招牌羊蝎子 小料自助台,116.2182748,40.22303008
403,唇辣号重庆老火锅(亚运村店),火锅,大屯北路慧忠北里第二社区四海凯悦2层,433,121,9,9,8.9,屠场鲜毛肚 孜然麻辣牛肉,116.4011542,40.00439897
404,汕头八合里海记牛肉店(苹果园店),火锅,实兴大街冠辉商务大厦四层,387,125,9,9.1,8.6,手打牛筋丸 吊龙,116.1842981,39.93389698
405,汇鲜舫海鲜粥底火锅,火锅,汽车博物馆东路6号院盈坤维景酒店二层,33,139,8.8,9,9,基围虾 瑶柱粥底,116.2980738,39.82507031
406,巴蜀签串串香火锅,火锅,前景路2号院8号楼1层112号,393,76,8.7,8.8,8.8,麻辣牛肉 毛肚,116.6293644,40.13623804
407,丽江龙记斑鱼庄(虎坊桥店),火锅,南横东街1-26号,1337,118,9,8.3,8.6,鱼片 特级青虾滑,116.3774871,39.88205562
408,蝎王府羊蝎子(垂杨柳店),火锅,广渠门外大街垂杨柳路1号,4511,101,9,8,8.1,精品羊蝎子特大锅 蒿子秆金针菇鲜豆皮,116.4484765,39.8925565
409,渝江记忆老重庆火锅(京荟广场店),火锅,梅市口路133号京荟广场B座102号,121,133,9.2,9.2,9.1,雪域嫩牦牛肉 美宁午餐肉,116.2460673,39.87909476
410,运河花园餐厅,火锅,芙蓉西路9号,131,85,8.6,8.7,8.3,特色秘制羊蝎子 绿色有机牛羊肉,116.6766233,39.91178517
411,九万士多港式海鲜粥底火锅,火锅,回龙观西大街35号院东亚新华2号楼207室,151,171,9.1,9,9.2,海鲜粥底 缅甸青蟹,116.3243797,40.07764001
412,油头粉面乐山油炸串串(慈云寺店),火锅,朝阳路甲1号八里庄东里丙楼,173,51,8.4,7.9,7.9,荤串串 赞赞赞赞酥肉,116.4907986,39.91761973
413,豆捞坊・胶原花胶火锅(君太百货店),火锅,西单北大街133号君太百货B1楼,3951,117,8.4,8.5,8.2,美味鲜虾滑 相间肥牛,116.3669261,39.90825896
414,亮健容天土锅羊蝎子(安定门内大街直营店),火锅,安定门内大街304号,2712,92,9.1,8,8.7,精品羊蝎子 抻面,116.4024575,39.94044406
415,芦月轩羊蝎子(健德门店),火锅,花园北路甲12号,834,98,9,8.7,8.5,羊蝎子中锅 精品羊脖,116.3732368,39.97977185
416,随变港式火锅・麻辣鸡煲(传媒大学店),火锅,朝阳路定福庄西里2号9幢1层102,34,106,9.1,9.1,9.1,随便麻辣鸡煲 红豆奶茶,116.5436901,39.91558489
417,摸错门牛肚王(双安店),火锅,北三环西路甲30号双天大厦2层,4117,90,8.2,7.9,7.7,牛肚 豆腐皮,116.3234017,39.96543483
418,镇三关重庆老火锅(工体旗舰店),火锅,工人体育场北路工人体育场北门,1444,146,8.9,9.1,9,六郎屠场鲜毛肚 六郎鲜鸭血,116.4416942,39.93063861
419,四季大盘涮肉园(双峪.店),火锅,双峪环岛西晨光二层,1417,95,9.1,8.8,9.1,精选羊肉 自助小料,116.1059887,39.93511806
420,有范儿串串香火锅(清河店),火锅,永泰庄西路6号院1层,47,80,8.4,8.5,8.3,麻辣牛肉 私房嫩滑牛肉,116.3462727,40.02978741
421,羊鲜参,火锅,槐房西路万达广场4F,273,82,9.1,9.1,9.1,乌珠穆沁太阳卷 自助蘸料,116.3619424,39.81245056
422,九号重庆火锅,火锅,学清路甲18号A座101,1226,103,8.9,9,8.7,麻辣牛肉 鲜鸭肠,116.3475578,40.00821781
423,东来顺饭庄(金泉广场店),火锅,北苑路金泉广场金泉美食宫2层,1261,144,8.6,8.5,7.9,烧饼 东来顺羊肉,116.4058575,40.00465322
424,蝎王府羊蝎子(潘家园店),火锅,松榆北路5号,5113,89,9.1,8.3,8.5,羊排蝎子特大锅 特色面片,116.4573357,39.87509458
425,玲珑居老北京涮羊肉(玲珑路店),火锅,玲珑路恩济东街交叉口东南角,692,98,9,8.8,8.6,手切鲜羊肉 鲜毛肚,116.2825925,39.93097452
426,斗川火锅(莲花桥店),火锅,吴家场路盛今佳园1号院4号楼底商,719,115,8.6,8.3,8.4,斗川小酥肉 麻辣牛肉,116.3020206,39.89307707
427,潮汕阿五牛肉店(百脑汇旗舰店),火锅,朝外大街99号百脑汇旗舰店二楼,659,110,9,9.2,9,手打牛肉丸 潮汕炸腐皮,116.4387316,39.92319254
428,渝味辣铺(石景山店),火锅,建西苑南里13号楼1单元102,368,107,9.1,8.5,8.8,麻辣牛肉 油碟儿,116.2010302,39.91654607
429,渝味辣铺(大兴店),火锅,兴华北路78号院1层39号,198,90,8.4,8.6,8.9,鸳鸯锅底 串串,116.3285345,39.74867176
430,潮汕牛肉火锅高兴壹锅(古城金融街店),火锅,石景山路54号院1号楼3层6-27,204,127,9.1,9.3,9.2,手打鲜牛肉丸 吊龙,116.2915246,39.7977787
431,九坤臻牛潮汕鲜牛肉火锅,火锅,广渠门内大街29号2楼西侧,278,106,8.9,9,8.7,手打鲜牛肉丸 吊龙,116.4287739,39.89263474
432,苗婆家凯里酸汤鱼,贵州菜,光彩路京港城生活广场四层4-809,432,110,9,9.1,9.2,酸汤鱼 番茄红酸汤锅底,116.408322,39.83908574
433,老北京涮肉(交道口店),火锅,交道口南大街25号,218,100,8.7,8.5,8.5,羊肉 肥牛,116.4020737,39.93842445
434,康二姐串串香(望京店),火锅,望京街9号望京国际商业中心E座底商1001,606,65,8.4,8.1,8.6,麻辣牛肉 脑花,116.4782091,39.98865689
435,黄记煌三汁焖锅(荟聚购物中心西红门店),火锅,欣宁街15号荟聚购物中心H区3层,3803,94,8.2,8.5,8.2,泡饼 海陆空组合锅,116.3222996,39.78687613
436,匠品毛肚火锅(小营总店),火锅,小营路17号金盟大厦二层,839,116,8.9,9.1,9.2,毛肚 自助小料,116.417255,39.99072594
437,聚福源清真餐厅(簋街店),火锅,东直门内大街288号北新桥地铁D口斜对面,1100,84,9,8.5,8.8,烤羊肉串（大串） 炙子烤肉,116.4110397,39.93917816
438,蜀园小馆,火锅,政府街地铁A口对面,245,45,9.1,9,8.5,牛骨火锅 酸辣牛骨米线,116.6575423,40.09844071
439,大成醉串串(霄云路店),火锅,霄云路中关村建设大厦院内,255,75,8.8,8.8,8.6,现炸酥肉 焦香土豆,116.4597281,39.9603615
440,蝎王府羊蝎子(双井店),火锅,双井垂杨柳北里,892,89,9.1,8.6,8.5,羊蝎子小锅(浓香) 特色面片,116.4522989,39.88942556
441,廖姥爷美蛙鱼头,火锅,广顺北大街望京西园四区423号韩国美食城二楼,146,91,8.9,8.9,8.8,美蛙 鱼头,116.4622871,39.99424383
442,假如在成都耗儿鱼美蛙火锅(簋街店),火锅,东直门内大街228号,2081,111,8.7,8.5,8.9,红油耗儿鱼 红糖糍粑,116.4135447,39.93938504
443,东来顺饭庄(西单店),火锅,西绒线胡同51号北门,3670,134,8.1,8,7.7,传统手切鲜羊肉片 传统羊肉串,116.3708511,39.90301155
444,小辉哥火锅(侨福芳草地店),火锅,东大桥路9号侨福芳草地购物中心LG2层,3464,151,8.6,8.8,8.3,特色五香肥牛 炸腐皮（1例）,116.4427216,39.91864071
445,唇辣号重庆老火锅(大兴龙湖店),火锅,龙湖时代天街西区9号楼205,267,102,9.2,9.3,9.3,巴蜀嫩牛肉 晾杆鸭肠,116.3142178,39.68355092
446,金牛潮汕鲜牛肉火锅(鸟巢亚运村店),火锅,慧忠里B区108号楼辣家私厨二楼近地铁15号线安立路站,214,102,8.6,8.3,8.6,吊龙 手打牛肉丸,116.3743853,39.99842316
447,蝎王府羊蝎子(西直门店),火锅,交大东路佰金广场一层,2892,86,9,8.4,8.1,普通羊蝎子 羊尾蝎子锅,116.3419112,39.9489148
448,唇辣号重庆老火锅(苏州街店),火锅,苏州街29号,1382,127,8.9,8.6,8.6,巴蜀嫩牛肉 屠场鲜鸭血,116.2967927,39.97893047
449,芝麻花火锅博物馆(祁家豁子店),火锅,健德桥北祁家豁子小区百安居南侧胡同内,383,76,8.7,9.1,8.8,鲜切羊肉 手切京八件,116.3755266,39.9783536
450,巴蜀签火锅串串(对外经贸店),火锅,惠新里3号,504,84,8.5,8.5,8.8,招牌现炸小酥肉 五香牛肉,116.4158265,39.97971651
451,辣f重庆老火锅(簋街店),火锅,簋街东直门内大街199-201号,6880,125,8.5,9,8.3,鸳鸯锅 一品嫩牛肉,116.41533,39.9397556
452,四川仁火锅(新兴桥店),火锅,西三环中路新兴桥东北角,6383,100,8.4,8.5,8.2,菌汤 肥牛,116.3044792,39.92125957
453,香家火锅(黄村店),火锅,黄村龙河路97号时代龙和东门,1207,98,9.2,9.2,9.2,香家毛肚 一船鱼,116.3927174,39.80532268
454,北华涮肉(北大西门店),火锅,颐和园路5号北京大学西门畅春园南门东侧,1212,90,8.8,7.7,8,秘制麻酱小料 手工切鲜羊肉,116.2983568,39.99326844
455,好食源酸菜鱼(总店),火锅,龙域中街回龙观新村北门商业楼2层,224,85,9.1,8.5,8.4,酸菜清江鱼 番茄清江鱼,116.3039831,40.06115415
456,串串龙火锅店,火锅,安立路安慧桥北200米邮局旁,539,78,9,8.3,8.7,牙签香菜牛肉 鸳鸯锅底,116.4017644,40.01812078
457,海银海记潮汕鲜牛肉火锅(方庄店),火锅,南三环东路芳群园四区20号楼东侧,899,100,8.6,8.6,8.4,牛丸锅 嫩牛肉,116.4240662,39.85768591
458,古铜老院爆肚涮肉(常营店),火锅,常惠路4号北辰福第商业街四号楼120室,843,112,8.9,8.9,8.4,极品羊上脑 水爆牛百叶,116.5871931,39.92631924
459,黄门老灶火锅(丽都直营店),火锅,芳园西路6号,2299,146,8.9,8.3,8.1,黄门嫩牛肉 屠场鲜鸭血,116.4750545,39.97390936
460,京门七品鱼(房山店),火锅,良乡政通路2号院,127,89,8.9,8.7,8.6,贴饼子 江团,116.1392435,39.74596264
461,老门框爆肚涮肉(樱花西街店),火锅,胜古南里8号楼东侧,590,113,8.9,8.5,8.3,水爆牛百叶 现榨辣椒油,116.4108611,39.97132205
462,何王氏串串香火锅(长楹天街店),火锅,朝阳北路长楹天街西区南侧商业街3层c317,61,82,8.8,8.5,8.6,串串香 鸳鸯锅底,116.5950958,39.92336069
463,小牛海记潮汕牛肉店(长椿街店),火锅,长椿街甲16号,1549,105,8.7,8.4,8.4,手捶牛肉丸锅底 吊龙,116.3574341,39.89308052
464,虾吃虾涮虾火锅(金台路店),火锅,甜水园东街10号4号楼,2945,89,9,8.7,8.8,招牌小锅虾 手切鲜羔羊肉,116.472381,39.92211417
465,虾士(中粮祥云小镇店),火锅,安泰大街中粮祥云南区6号院3号楼103室,1140,119,8.5,8.6,8.3,精制虾火锅 虾滑,116.5297767,40.09042856
466,老街火锅(阜成路店),火锅,定慧北里23号蓝宏中心1-2层,1432,135,8.7,9,8.6,精品肥牛 鲜毛肚,116.2742251,39.92364873
467,神农牧羊烤全羊,烧烤,朝阳北路与常营东路交口南500米龙缘马术俱乐部二楼,76,157,9.1,9,9.1,烤全羊 鲜羊血,116.618246,39.92516729
468,椒珑D正宗成都串串香(创始店),火锅,丰桥路三环新城速8酒店一层,619,72,9,9,9.1,燕京精酿 杠上脑花,116.3276003,39.84849146
469,玉林串串香(东直门簋街店),火锅,东直门内大街5-9号,5311,103,8.3,7.5,7.9,秘制手切香滑牛肉 鸳鸯锅底,116.423485,39.93987081
470,老诚伊(牛街总店),火锅,牛街11号,4583,82,8.6,7.3,6.9,羊蝎子 面条,116.3572145,39.88364654
471,前后涮羊肉(二里庄店),火锅,志新路乙9号,750,106,9.1,8.2,9,内蒙古羔羊肉 手切羊肉,116.3652676,39.99282208
472,醉麻辣(悠唐店),川菜,朝阳门博纳悠唐购物广场A座四层,889,83,8.4,8.5,8.2,老妈蹄花 冒脑花,116.3067293,39.9800392
473,东来顺饭庄(呼家楼店),火锅,东三环北路38号院4号楼好世界商业广场2层,2329,137,8.4,8.7,8.3,传统手切鲜羊肉 传统羊肉串,116.456267,39.91991267
474,滇草香云南原生态汤火锅(华联万柳店),火锅,巴沟路2号BHGMAII华联万柳购物中心5层,1934,126,8.7,9.1,8.9,特色米酒 菌类拼盘,116.2897705,39.97281252
475,众宜轩老北京铜锅涮肉(传媒大学店),火锅,高碑店北花园168号5号院,405,175,8.7,9.1,8.1,滩羊脆骨 手切滩羊鲜肉,116.5420672,39.89785942
476,袁记幺哥串串香,火锅,太平庄东一路天通苑东一区15号楼1门,253,65,8.7,8.7,8.9,香辣牛肉 麻辣牛肉,116.4272409,40.06833766
477,芊语鲜寻日式火锅(农大店),日本菜,农大南路肖家河回迁东区北门井格火锅旁,287,95,8.7,8.6,8.7,抹茶大福 三文鱼炸虾卷,116.2752721,40.01493117
478,百叶居(赵登禹路店),火锅,赵登禹路117号,2430,118,8.4,7.6,7.4,特色鲜百叶 鲜羊肉,116.36186,39.93520896
479,三江三味灶台鱼,海鲜,天竺镇天柱东路二十里铺村,217,112,8.6,8.4,8.3,灶台鱼 干豆角,116.5632681,40.0657382
480,牧民家园,火锅,乾安路北辰墅院1900对面,110,105,9,9,8.8,红柳大串 菌汤锅,116.6484723,40.18501396
481,巴蜀・王婆大虾(回龙观旗舰店),火锅,育知东路37号,1619,79,9.1,8.4,8.6,免费抻面 小锅虾,116.3279231,40.07298305
482,小门墩老北京涮肉&烧烤(翠城店),火锅,南杨庄路垡头翠城馨园340号楼底商,874,81,9.1,8.4,9.1,手切羊腿肉 手切鲜上脑,116.4953622,39.85558092
483,常赢三兄弟涮肉(来广营店),火锅,红军营南路来广营乡政府对面,324,104,8.7,8.4,7.9,烤羊肉串 鲜羊肉五拼,116.4274516,40.03059806
484,芦月轩羊蝎子(通州店),火锅,车站路26号楼,1581,78,9,8.4,8.6,羊蝎子中锅 炸腐竹,116.8487238,40.38665744
485,老官嘴老灶火锅(定福庄店),火锅,定福庄北里1号院,524,105,8.7,8.4,8.4,老官嘴鲜鸭血 老官嘴鲜毛肚,116.5547827,39.91639561
486,阳坊胜利涮羊肉(胜利老店),火锅,阳坊镇中心街10号,2433,105,9,8.1,8,阳坊胜利涮羊肉 火烧,116.1334301,40.13736656
487,葫芦娃牛板筋火锅(北海店),火锅,爱民街一巷7号,262,65,8.9,8,8.7,牛板筋火锅 烙饼,116.375308,39.93079514
488,东来顺饭庄(裕民中路店),火锅,北三环裕民中路8号,980,135,9,8.5,7.8,东来顺羊肉 手切鲜羊肉,116.382277,39.96857256
489,山城辣妹子重庆火锅(甘露园店),火锅,甘露园南里一区11号楼,1842,110,9,8.9,8.9,麻团 芝麻小烧饼,116.5073103,39.91466967
490,蝎王府羊蝎子(洋桥店),火锅,马家堡东路角门东里12号楼一层,2673,93,9.1,8.3,8.1,精品羊蝎子小锅 特色面片,116.380056,39.84610069
491,滇草香云南原生态汤火锅(长楹天街购物中心店),火锅,朝阳北路长楹天街购物中心西区5层,1787,131,8.9,9.2,8.7,米酒 菌汤锅,116.5937906,39.92403494
492,永乐涮羊肉,火锅,帝京路恒富中街5号院,163,84,9,9,9.1,永乐手工鲜羊肉丸 永乐秘制麻酱小料,116.2891241,39.83315983
493,煜上火锅(西红门店),火锅,郭公庄路与宏康路口东南角,294,106,9.1,9,8.7,空运毛肚 红糖糍粑,116.3107464,39.78048924
494,牛炖私家牛板筋火锅店,火锅,金顶街模式口南里小区内,180,76,8.8,8.4,8.9,儿牛板筋锅 精品大锅,116.1550006,39.93218193
495,新辣道鱼火锅(西直门店),火锅,西直门外大街1号西环广场凯德MALL购物中心5楼,5954,104,8.3,8,7.7,红汤梭边鱼锅 蔬菜自助,116.3466584,39.93975934
496,芦月轩羊蝎子(鲁谷店),火锅,鲁谷南路26号西侧底商,1330,82,9,9,9.1,羊蝎子中锅 炸腐竹,116.2058407,39.8991291
497,狮子山下炭火蛙锅,火锅,霄云路15号,279,94,7.6,8.5,7.7,虾锅蛙妹 腊味煲仔饭,116.4603955,39.95943083
498,小龙坎老火锅(石佛营店),火锅,八里庄北里302号楼101号,715,130,8.2,8.8,8.1,极品鲜毛肚 霸王牛肉,116.4956769,39.92603425
499,一品焖锅(富力广场店),火锅,东三环中路65号富力广场8层,2192,104,8.9,9.1,9.1,组合锅 牛肉粒,116.4543878,39.89458515
500,斗川火锅(人民大学店),火锅,万泉河路68号紫金庄园9号楼东1门一层,69,102,9,8.8,8.9,斗川小酥肉 斗川鸳鸯锅,116.3020197,39.9659318
501,东来顺饭庄(展览路店),火锅,展览馆路3号,1253,153,8.8,8.9,8.4,烧饼 手切羊肉,116.3372258,39.92889719
502,马路边边串串香(燕莎奥莱店),火锅,东四环南路9号燕莎奥特莱斯C座3层,106,96,8.3,7.9,7.9,牛肉 经典锅,116.4808768,39.87688958
503,皇后炖鱼(首都机场店),火锅,小天竺路天竺家园大门口南100米,521,88,9,8.6,8.8,黑鱼 黄辣丁,116.5824526,40.04202564
504,一签之圆(正宗川味串串香),火锅,康辛路鸿业兴园3号楼一层1-5,154,60,9.1,9,8.5,冷锅串串 鸡翅,116.3007469,39.83564624
505,愚掌门鱼火锅(翠微店),火锅,翠微路2号院28号楼银河宾馆一层,1249,127,8.8,8.5,9,斑鱼双拼味碟 招牌斑鱼片,116.2947947,39.90875712
506,井格重庆火锅(新奥天虹店),火锅,湖景东路新奥天虹购物中心地下一层,210,122,8.7,8.3,8.5,麻辣牛肉 鲜鸭血,116.3906851,39.99776378
507,丽江庭院之柔软时光(鼓楼店),火锅,国旺胡同18号,4150,151,8.1,8.8,8.3,斑鱼片 芝士丸,116.3893728,39.94375553
508,醉成都火锅串串香(五道口店),火锅,东王庄33号楼首层,362,83,8.9,8.8,9.1,现炸酥肉 冷锅串串,116.3342849,39.99837191
509,鱼豆吉(大慧寺店),火锅,北京大慧寺路东口临街商户近高粱桥斜街、交大西门西侧、富海大厦南,2107,89,8.8,8.1,8.5,豆浆子母锅 梭边鱼,116.3298549,39.95092027
510,鸦儿李记(鼓楼店),火锅,旧鼓楼大街181号,489,83,8.6,8.2,8.2,手切鲜羊肉 李记烧饼,116.3876179,39.93978401
511,热辣壹号(荟聚购物中心西红门店),火锅,欣宁街15号荟聚购物中心H区3层,4708,126,8.3,8.8,8.4,麻辣牛肉 番茄三拼锅,116.3222996,39.78687613
512,鱼你在一起(亦庄物美总店),川菜,亦庄经济技术开发区天华北街物美超市地下一层,414,33,9,8.8,8.6,青花椒酸菜鱼 公举番茄鱼,116.5258342,39.78392302
513,赵小柒串串香(三里屯店),火锅,体育场东路14号,903,87,8.7,8.2,8.8,嫩牛肉 香菜牛肉,116.4431193,39.9220993
514,耕牛堂（Z）潮汕鲜牛肉火锅(朝阳门旗舰店),火锅,朝阳门外大街17号祥业大厦二层,809,126,8.9,9,8.8,牛肉墙 炸腐皮,116.4343363,39.92318705
515,蜀渝你的串说(潘家园店),火锅,华威南路尚客优酒店底商1层,58,64,8.7,8.7,8.8,琅琊土豆 串串香,116.4463833,39.87014449
516,口福居老北京涮肉(大运村店),火锅,知春路29号大学生公寓7-8号楼,4649,86,7.6,7.4,7.1,金牌羔羊肉 自助小料,116.3366162,39.97585662
517,重庆鲜货老灶火锅(动物园店),火锅,西直门外大街141号,827,104,9,8.7,8.9,毛肚梗子 小酥肉,116.3290647,39.93724713
518,非辣道川味火锅(北苑店),火锅,红军营南路甲6号,317,104,9,9.1,9.1,鲜毛肚 鸭肠,116.4190919,40.03088395
519,东来顺饭庄(金隅嘉品Mall店),火锅,东坝中路38号金隅嘉品mall5层,1016,97,9,9.1,8.9,东来顺羊肉片 锡盟羔羊肉,116.5423967,39.95040211
520,汕头嗨牛鲜牛肉火锅店,火锅,文化园东路6号院3号,1339,110,8.8,8.8,8.5,吊龙 嫩肉,116.4985778,39.80768636
521,小龙坎老火锅(府前西街店),火锅,府前西街10号金百万底商,44,123,8.2,8.8,7.8,鸭血 极品鲜毛肚,116.6426357,40.12843843
522,相聚在成都醉串串,火锅,新街口北大街70号甲,729,67,8.8,8.9,8.6,红糖糍粑 琅琊土豆,116.3663169,39.94253954
523,南门四季涮肉(亚运村店),火锅,亚运村安慧里一区二号楼慧苑商住公寓1楼,1162,125,8.5,8.1,7.9,高钙羊肉 鼎排至尊,116.408648,39.99334653
524,东来顺(顺义店),火锅,胜利街道府前西街10号,453,147,9,9.1,8.8,高钙羊肉 牛肉,116.6426357,40.12843844
525,遇见成都(赵公口店),火锅,定安路定安东里9号楼底商,823,80,8.8,8.2,8.7,串串自助 麻辣牛肉,116.4082497,39.85838023
526,小哥串串香(银河SOHO店),火锅,朝阳门银河S0H0A座B1-139号,468,66,9,8.2,8.6,牛肉串 香油料,116.4266637,39.91959178
527,小辉哥火锅(SKP店),火锅,建国路87号北京SKPA区6层D6012号,2140,166,8.8,8.7,8.3,辉哥金牌雪花牛肉 炸腐皮（1例）,116.4722062,39.90782307
528,孙明星大刀腰片(丰台京港城店),火锅,光彩路232号,96,83,9,8.6,9,孙明星大刀腰片 串串,116.4091475,39.83983401
529,功・道潮汕牛肉火锅,火锅,滨河路111号建行北侧恒辉写字楼2层,69,105,8.3,8.2,8.3,现打牛肉丸 吊龙,116.1043127,39.93576295
530,渡娘火锅(清河店),火锅,清河一街60号一层109号底商,382,109,9.1,9.1,9,屠场鲜毛肚 鲜鸭血,116.3418325,40.03034527
531,虾吃虾涮虾火锅(六里桥店),火锅,太平桥路15号107底商,1000,81,8.7,8.5,8.2,招牌中锅虾 恋上虾锅,116.3113499,39.8778212
532,江小渔斑鱼火锅(西红门店),火锅,西红门宏业路（2号院）与欣宏大街十字路口东南角底商,613,107,9,8.9,8.7,斑鱼 斑鱼，鱼骨锅底，,116.3348758,39.78039484
533,井格重庆火锅(世界之花假日广场店),火锅,久敬庄路世界之花四层井格火锅,213,128,8.8,9.1,9,麻辣牛肉 井格毛肚,116.4161434,39.81822128
534,狼爱上羊音乐火锅,火锅,大井桥南路西202号，地铁大井站西300米,431,111,9.2,9.2,8.8,招牌虾滑 手切羊肉,116.2581879,39.86445121
535,重庆十八梯老火锅(总店),火锅,罗庄东路10号,1743,113,8.5,8.3,8.4,嫩牛肉 鲜毛肚,116.3438892,39.97190409
536,仟签会串串香火锅(广渠门店),火锅,东花市大街北里中区28号楼底商45号,758,92,8.8,8.9,8.7,辣牛肉 嫩牛肉,116.4262602,39.89635403
537,牛者潮汕鲜牛肉火锅(万年24小时店),火锅,丰台东路育芳园49号楼底商,582,111,9.1,9.1,9.1,手打牛肉丸 新鲜肥牛,116.3128222,39.84704032
538,一锅两头牛・筋头巴脑一锅香(崇文门店),火锅,崇文门外大街搜秀7层,287,86,8.5,8.6,8.7,筋头巴脑一锅香 筋头巴脑鸳鸯锅,116.4127881,39.89154113
539,杨家火锅(朝阳大悦城店),火锅,青年路与朝阳北路交口南100米佳亿青年汇4层,2433,139,8.5,8.7,8.4,杨家秘制麻辣香牛肉 杨家传承酥肉,116.5080446,39.92117975
540,解腰带(中关村店),自助餐,中关村大街15号东方创业谷・食宝街内,1126,52,7.4,7.4,7.6,韩国年糕火锅 南瓜粥,116.3071598,39.9790831
541,虾吃虾涮(劲松华腾北塘店),火锅,南磨房路37-2号,2636,94,9,8.5,8.5,恋上虾锅 手擀面,116.4612532,39.88379862
542,东来顺饭庄(新源西里店),火锅,新源西里中街12号,1138,118,8.4,8.1,7.8,元东来顺外脊羊肉 烧饼,116.441674,39.94711869
543,乾矿老火锅,火锅,广顺北大街望京西园四区420号楼,258,119,8.7,8.9,8.9,乾矿空运毛肚 碗碗鲜鸭血,116.4629492,39.99516744
544,呷哺呷哺(朝阳大悦城店),火锅,朝阳北路101号朝阳大悦城8层,1488,61,8.5,7.9,7.9,麻酱 肥牛套餐拼盘,116.5130868,39.92387755
545,葱葱那年串串香火锅(中关村店),火锅,彩和坊路8号天创科技大厦底商,1847,73,8.3,8.5,8.5,美味串串 麻辣牛肉,116.3027515,39.98041703
546,王家渡火锅(顺义店),火锅,站前街8号院17号楼S1商业楼,897,140,9.1,9.2,8.9,自制虾滑 自选水果,116.6421619,40.12093068
547,阿丽斑鱼庄(洋桥店),火锅,马家堡东路与角门北路交叉口天路蓝图大厦三层,2958,96,8.8,8.8,7.8,斑鱼刺身 阿丽斑鱼锅,116.3805785,39.84781519
548,新辣道鱼火锅(荟聚购物中心西红门店),火锅,欣宁街15号荟聚购物中心3楼,2969,110,8.7,8.5,8.4,红汤梭边鱼锅 土豆,116.3222996,39.78687613
549,渝味辣铺(清河店),火锅,小营西路25号院新天宇网咖隔壁,544,87,8.8,8.7,8.9,麻辣牛肉 香菜牛肉,116.3262873,40.03586233
550,誉满楼姿造火锅,火锅,朝外大街朝外209东岳庙西墙外,517,130,8.9,9.3,9,雪龙雪花上脑 基围虾姿造,116.4489472,39.9187684
551,二人锅(北京爱琴海购物公园店),韩国料理,七圣中街12号院爱琴海购物公园4层,1135,80,8.3,8.9,8.5,首尔大王章鱼锅 芝士年糕锅,116.4299625,39.96941956
552,鲜牛记潮汕牛肉火锅(石景山鲁谷店),火锅,鲁谷路台湾街2号,1288,115,8.3,8,8.2,吊龙 生丸,116.2320073,39.90290822
553,槐店王婆大虾(玲珑路店),火锅,玲珑路恩济西园北门,319,81,8.9,8.5,8.4,精品大虾锅 抻面,116.2754477,39.9303911
554,新辣道鱼火锅(世茂广场・工三店),火锅,工体北路13号世茂广场・工三B1层,1721,105,9,8.9,8.8,巴沙鱼 红汤梭边鱼锅,116.4439531,39.9345985
555,钢管厂五区小郡肝火锅串串香(簋街总店),火锅,东直门内大街186号,1004,116,8.4,7.5,7.7,特色小郡肝 麻辣牛肉,116.4168499,39.9394045
556,羯子李(西便门总店),火锅,西便门西里7号楼1楼,2066,103,8.4,7.6,7.6,白汤蝎子 炸窝头,116.3451033,39.89720648
557,火凤凰重庆火锅(东直门店),火锅,东直门内大街15-8号,2196,125,8.4,7,7.2,牛蛙 功夫青笋,116.4202202,39.93988673
558,百旺签百味火锅串串(双榆树人民大学店),火锅,双榆树三街中段双榆树西里4号楼西北角,1476,81,8.8,8.1,8.6,秘制四川酥肉 手切鲜牛肉,116.3172458,39.96647022
559,定海神针冷锅串(工体店),火锅,工体北路13号,591,90,8.8,8.4,8.3,素食串串单人餐 脑花,116.4432988,39.93367628
560,热辣壹号(屯三里店),火锅,工体北路21号永利国际购物中心F2,4656,133,8.5,9,8.6,麻辣牛肉 功夫鸭肠,116.4384344,39.93351996
561,蝎王府羊蝎子(东四北新桥店),火锅,东四北大街26号,594,84,8.7,8.3,8.2,精品羊蝎子小锅 涮菜,116.4108396,39.9381681
562,佐冷馋・串串里(方庄店),火锅,蒲芳路8号,267,106,8.4,8.7,8.5,牛肉系列 自助调料,116.4265402,39.86428701
563,皇城老妈(德胜店),火锅,德胜门教场口街9号院戊9-2号,2923,162,8.3,8.6,7.9,老妈牛肉 毛肚,116.3745704,39.95378506
564,美炉火锅(郎园Vintage店),火锅,通惠河北路郎园Vintage艺术园区南门2号楼1层,1602,185,8.6,9.2,9.1,严选雪花肥牛 北纬38度高钙羊,116.2247612,39.9527351
565,槐店王婆大虾(圣熙八号店),火锅,学院路街道圣熙８号购物中心5层,798,74,9.1,8.5,9,虾锅 王婆拉面,116.3477768,40.00712561
566,田源鸡火锅(通田店),火锅,玉带河大街177号,986,76,9,8.4,8.7,田源鸡 手打鲜虾滑,116.6357866,39.90103375
567,川越(广顺南大街店),火锅,广顺南大街望花路东里2号楼,974,78,8.8,8.2,8.6,嫩牛肉 油碟,116.4680589,39.98837241
568,ZeroGo环球健康蔬食,素菜,望京东园七区保利好食界8-1号,408,98,8.6,9.1,9,藜麦南瓜活力碗 告别慵懒牛油果时蔬超级碗,116.4834771,39.99715193
569,102蹄花火锅(北大南门店),火锅,海淀路19-1号中成大厦1楼,1195,70,8.6,8.2,8.4,木瓜猪蹄 金牌麻酱,116.3049413,39.98481895
570,蜀签传成都串串(洋桥店),火锅,角门东里11号楼一层北,1267,78,8.4,8.5,8.7,冷锅串串 冒鸭血,116.3801625,39.84665622
571,乐山飘香串串香(西大望路店),火锅,西大望路首都经济贸易大学8号楼1层,197,89,8.9,8.9,9,菌汤鸳鸯锅 卤牛肉,116.4715169,39.91317208
572,杨火老灶火锅(首都机场店),火锅,首都机场南平街6号,164,103,8.6,8.9,8.7,屠场鲜鸭血 大脸毛肚,116.5985406,40.04499643
573,蝎王府羊蝎子(六里桥店),火锅,太平桥西路马连道南街,2315,84,9.1,8.5,8.3,普通羊蝎子 免费小麻团,116.3081896,39.8811274
574,金源福城肥牛火锅(远大路金源店),火锅,远大路1号金源时代购物中心五层5-17号,6335,91,7.8,7.5,7.4,酸梅汤 特价肥牛,116.2825041,39.95661364
575,巴蜀王婆大虾(望京店),火锅,望花路望京花家地街1号楼2层,171,82,8.9,8.5,8.2,大锅虾 抻面,116.4627404,39.98475451
576,重来火锅,火锅,和平里东街13区5号楼西侧底商,271,85,8.4,8.6,8.8,重庆手工苕粉 鸳鸯锅,116.4191366,39.96296412
577,胖哥俩肉蟹煲(中粮祥云小镇店),火锅,空港街道安泰大街9号院10号楼2层10-201-C,846,83,8.1,8.4,7.8,胖哥俩葱油饼 鸡爪煲,116.5314546,40.08828686
578,四季大盘涮肉(鲁谷店),火锅,鲁谷路与翠园西街东南角,530,86,9,8.3,8.8,高钙羊肉 手切鲜肉,116.2210515,39.90251369
579,魏老香鸡火锅(马驹桥店),火锅,马驹桥商业街2号,476,65,8.9,8.9,8.7,鸡火锅 山野麻辣鸡锅,116.5468276,39.7617342
580,山城辣妹子重庆火锅(方庄一店),火锅,芳古路芳群园二区28号楼,3659,91,8.6,8.1,8,麻团 小烧饼,116.4250405,39.86042189
581,北京潮汕牛肉火锅店(光华路店),火锅,光华路1号院,540,122,8.4,8.4,8.5,经典手捶牛肉丸锅底 吊龙,116.46307,39.91281473
582,大成醉串串(大望路店),火锅,大望路景辉南街,516,71,8.8,8.2,8.5,串串香 冒脑花,116.4657495,39.90839538
583,辣f重庆老火锅(望京店),火锅,河荫中路望京西园2区6号美食一条街,1224,124,8.4,9,8.8,精品肥牛 屠场鲜毛肚,116.4628055,40.00382272
584,蜀神砂器串串香(总部基地店),火锅,丰葆路106号,587,92,8.9,8.8,8.6,串串 蜀神鸳鸯锅底,116.2850134,39.81406122
585,小辉哥火锅(国瑞购物中心店),火锅,崇文门外大街18号国瑞购物中心2层,3784,128,8.5,8.8,8.2,秘制五香肥牛 炸腐皮,116.4136408,39.89681833
586,小椒串串香火锅(鼓楼西大街店),火锅,鼓楼西大街56号,1219,81,8.3,7.5,7.5,麻辣香锅 酸梅汤,116.3863901,39.93946239
587,蝎王府羊蝎子(朝阳北路店),火锅,朝阳北路延静里12号,5163,90,8.8,8.1,7.8,普通羊蝎子 特色面片,116.4763079,39.9219794
588,丽江庭院之丽江往事(安定门店),火锅,柴棒胡同3号,2584,154,8.2,8.8,8.5,斑鱼片 芝士丸,116.4014626,39.94481411
589,杨家火锅(大望路店),火锅,建国路88号大望桥西南角西大望路现代城立体停车楼一层,1599,144,8.3,8.1,7.9,杨家秘制麻辣香牛肉 鲜毛肚,116.469826,39.9049065
590,京味居铜锅涮肉(怀柔潘家园店),火锅,迎宾路与滨湖北街交口金融大厦红绿灯向西200米路北,137,80,9.1,8.8,8.5,手切羊肉 高钙羊脆骨,116.6328622,40.32689886
591,乐山飘香串串香(鼓楼店),火锅,鼓楼东大街小经厂,2026,86,8.7,8,8.3,秘制牛肉 鸳鸯锅,116.3990004,39.93985113
592,宽板凳老灶火锅(天竺店),火锅,天北路府前一街4号,401,117,9,8.8,8.6,巴蜀嫩牛肉 鲜毛肚,116.5792011,40.06002723
593,忆巴蜀鲜菜火锅(青塔西路店),火锅,青塔西路15号,63,66,8.8,8.9,9,红酒嫩牛肉 鸳鸯骨汤锅底,116.2582722,39.88264227
594,东来顺饭庄(城乡世纪广场店),火锅,科创五街38号城乡世纪广场E座3层E310-311,890,105,8.8,8.9,8.4,精选羔羊肉 烧饼,116.5271637,39.80219016
595,兴记猪肚鸡云南火锅鱼(常营店),火锅,北辰福地v中心B1-113B,736,66,8.7,8,8.8,胡椒猪肚鸡 腊味煲仔饭,116.5945789,39.92565219
596,巴蜀・王婆大虾(右安门店),火锅,玉林东路玉林里17号楼底商,489,84,9.1,7.9,8.4,微辣大锅 抻面,116.3534869,39.86448423
597,阿拉腾娜日蒙古涮肉烧烤,火锅,兴业大街76-08号华昱家园西门底商,681,82,8.1,7.8,8.2,老北京铜锅涮肉 自助小料,116.3226696,39.72727735
598,蝎梁府(左家庄店),火锅,香河园路左家庄前街1号京华时报社前,827,77,9,8.5,8.4,精品羊蝎子 武大郎烧饼,116.4370298,39.95217192
599,珍巴奴毛肚牛肉小火锅(四惠店),火锅,四惠东通惠家园惠民园5号楼南侧平房,282,69,8.4,8.6,8.5,招牌牛肚 手切鲜牛肉,116.5050797,39.90906957
600,牵佰胃串串香(海淀旗舰店),火锅,文慧园路9号今典花园2号楼底商,45,66,8.4,8.3,8.6,小酥肉 红糖糍粑,116.3534079,39.95126247
601,甲丁南坪打边炉,火锅,西平街升港快捷酒店1楼,255,102,8.6,8.7,8.7,养生鸡汤锅 卤肉肥牛双拼饭,116.4625257,39.87666945
602,老诚伊羊蝎子火锅・烧烤(五道口店),火锅,双清路88号华源世纪商务楼三层,649,81,8.7,8.7,8.6,精品羊蝎子大锅 土司番薯,116.3286953,39.99509811
603,川越(河荫中路店),火锅,望京河荫中路2号,136,80,8.4,8.5,8.8,特色牛肉 串串香火锅,116.4653799,40.00409719
604,东来顺饭庄(望京华彩商业中心店),火锅,广顺北大街16号望京华彩商业中心4层,3199,108,8.4,8.5,8.3,东来顺羊肉片 传统手切鲜上脑羊肉,116.4627705,40.0095049
605,吉羊三宝涮肉(笔管胡同店),火锅,笔管胡同18号,675,108,8.8,8.3,8.1,吉羊三宝 烧饼,116.3537047,39.90319792
606,宣武门渤海湾海鲜烧烤(六里桥店),海鲜,六里桥西三环南路6号,321,88,8.4,7.7,8.2,皮皮虾馅饺子 辣炒花蛤,116.3054503,39.88122139
607,春熙麻辣串串香火锅(九台路店),火锅,太平庄北街天通苑西三区西北门对面,414,83,8.4,8.7,9.1,春熙麻辣牛油锅底 炸酥肉,116.4050538,40.07339496
608,黄记煌三汁焖锅(方庄店),火锅,蒲方路时代LIFE购物中心5层,306,95,8.5,8.7,9,焖t鱼 红薯块,116.4291446,39.86412166
609,重庆烧鸡公火锅(簋街店),川菜,东直门内大街228号,905,87,8.2,7.6,7.9,特色烧鸡公火锅 精品烧鸡公,116.4135447,39.93938504
610,沸炉鲜货火锅・小龙虾(平谷店),火锅,新平东路13号,368,92,8.5,9,8.9,沸炉三必吃 鲜黄喉,117.1169168,40.13862115
611,成都倒拐香耗儿鱼(北京店),火锅,西三环北路82号,1315,115,8.6,8.1,7.8,干锅耗儿鱼 红糖糍粑,116.3059574,39.92638885
612,串串龙江二娃串串香(慈云寺店),火锅,朝阳路八里庄东里1号,872,84,9,8.9,8.5,撒尿牛肉丸 霸王毛肚,116.4916127,39.91407582
613,根娃子重庆串串香火锅,火锅,朝阳北路珠江罗马嘉园南门对面青年汇写字楼104号楼底商,709,89,8.6,9.1,9.1,鸳鸯锅底 红糖糍粑,116.508575,39.9212279
614,小哥串串香(三里屯店),火锅,幸福二村四巷首开幸福广场39号楼,1841,75,9,8.1,8.8,牛肉串 冒脑花,116.4428821,39.93583553
615,巴蜀・王婆大虾(知春路店),火锅,知春路102号,868,74,8.9,8.1,8,大锅虾 抻面,116.3187993,39.97459418
616,攀成钢小郡肝串串香(好运街店),火锅,朝阳公园路1号好运街B12,325,99,8.4,8.4,8,香菜牛肉 特色小郡肝,116.4649418,39.95062871
617,渡娘火锅(良乡店),火锅,拱辰街道北关西路47号房屋14号,419,99,9.1,9,9.1,冰粉 鲜鸭血,116.1328267,39.7344192
618,山釜餐厅,火锅,德胜门西大街甲58号,838,336,8.6,9.1,8,优选肥牛 墨鱼丸,116.3681791,39.94703138
619,春潮汕牛肉火锅(悦辰里店),火锅,良乡拱辰大街12号悦辰里C-1,387,99,8.8,9.2,8.7,嫩肉 鲜手打牛筋丸,116.1365198,39.73862651
620,香草香草云南原生态火锅(华贸天地店),火锅,清河营南街七号院华贸天地东区3号楼2层,766,131,9.1,8.9,9,经典香草嫩牛肉 鲜菌汤底最好,116.4245531,40.04685252
621,蝎王府羊蝎子(清河店),火锅,安宁庄东路72号小营桥西热力公司旁,1245,92,9.1,8.5,8.2,普通羊蝎子 特色烧饼,116.3265881,40.03937454
622,花签签成都串串,火锅,民族大学西路18号,611,82,8.4,8.6,8.4,冷锅串 红糖糍粑,116.3113142,39.95286768
623,水门涮肉房(顺义马坡店),火锅,乾安路佳和宜园商铺,459,101,9.1,8.8,8.9,太阳肉 烤肥牛卷,116.6431697,40.17187847
624,陈阿婆(长椿街店),川菜,长椿街甲18号,1810,94,8.6,8.7,8,陈麻鱼清江鱼 绿萝棒棒鸡，,116.3574945,39.89242626
625,鑫方老鸭汤火锅・羊蝎子(学院路店),火锅,林业大学北路8-3号,1282,77,8.9,8,8,鸭血 竹荪,116.3439776,40.0063037
626,呷哺呷哺(西单大悦城店),火锅,西单北大街131号西单大悦城地下二层,1627,57,8.3,7.8,7.7,麻酱 经典蔬菜拼盘,116.3667524,39.90950018
627,五福门爆肚涮肉(刘家窑店),火锅,蒲黄榆路9号,71,106,8.5,8.8,8.6,手切鲜羊上脑 五福门秘制酸梅汤,116.4150228,39.85907646
628,百味记小郡肝串串香(双井旗舰店),火锅,东三环中路16号,331,85,8.6,8.2,8.8,麻辣小郡肝 香菜牛肉,116.4562491,39.89911322
629,蜀来蜀去砂锅串串香原玉林串串香,火锅,魏公街16号,532,83,8.5,8.1,8.3,秘制鸳鸯锅 麻辣牛肉,116.3132048,39.95189918
630,井格重庆火锅(马家堡店),火锅,角门北路3号院6号楼一层2号,1200,118,9,8.9,8.7,井格毛肚 鲜鸭血,116.3767046,39.84988888
631,东来顺(铭泽生活广场店),火锅,周庄村52号铭泽生活广场2层,890,113,9,9,8.7,传统手工切鲜羊肉 烧饼,116.470777,39.86195788
632,星米休闲餐厅(富力广场店),韩国料理,东三环中路65号富力广场中区B1层,2745,65,8.1,8.6,8.2,辣味炸鸡 部队年糕火锅（小锅）,116.4543878,39.89458515
633,刘一锅筋头巴脑(西铁营万达店),火锅,玉林西路145号西铁营万达广场六层,278,80,8.7,8.8,8.8,麻辣锅 经典锅,116.3498847,39.85935606
634,老门框爆肚涮肉(甜水园店),火锅,甜水园东街12号楼,362,105,8.8,8.4,8.1,水爆牛百叶 涮羊肉,116.4783222,39.92477143
635,紫火锅(工体店),火锅,工体北路幸福一村西里甲5号渝信川菜3层,362,115,9.1,9.1,9,紫龙招牌老肉片 鸳鸯锅,116.439599,39.93499114
636,奕品风尚干锅辣鸭头,火锅,学院路5号768创意园1楼,1905,76,9.1,8,8.3,鸭头中锅 青笋,116.3457286,40.00719559
637,天后火锅(慈云寺店),火锅,八里庄1号莱锦文化创意产业园CN18号楼一层,358,139,8.6,9.2,9.2,苏尼特手切鲜羊肉 妈妈小酥肉,116.4920931,39.91246393
638,川西坝子红码头(聚齐儿店),火锅,马家堡东路106号院月桂树酒店二层聚齐儿餐厅c区,168,132,9.1,9.1,9.1,清油鸳鸯锅 牛黄喉,116.3809348,39.8412722
639,郭立杨家火锅(爱琴海店),火锅,北三环东路爱琴海5层,287,115,8.3,9.1,8.3,鲜毛肚 麻辣鲜牛肉,116.4301389,39.97057431
640,好合兴潮汕牛肉火锅(铭泽生活广场店),火锅,周庄村52号铭泽生活广场2层,429,111,8.8,8.9,8.9,吊龙肉 手锤牛筋丸,116.470777,39.86195788
641,福华肥牛城(古城路店),火锅,古城路甲4号,1140,77,8.8,8.5,8.1,肥牛 金牌烧饼,116.1827563,39.91357153
642,蛙蛙叫干锅年代(五道口店),川菜,成府路29号五道口国际食尚苑A区3层,911,84,8.2,7.9,8.1,干锅牛蛙 干锅千叶豆腐,116.3323442,39.99205939
643,老北京前后涮羊肉(和平里店),火锅,和平里北街兴化路九区1栋,1309,88,8.6,8.5,8.8,鲜羊肉 麻酱,116.4076836,39.9593746
644,牛签门串串香,火锅,学清路圣熙八号购物中心5层,306,75,8.9,9,8.9,牛肉卷香菜 牛油锅底,116.3489827,40.00751598
645,猛虎下山(雍和宫店),火锅,青龙胡同10号10-12,382,57,8.2,8.4,8,骨汤麻辣烫 猪蹄火锅,116.4167254,39.94650768
646,阿丽斑鱼庄(千禧店),火锅,靛厂商业街4号楼1层西区B2-B3,183,92,8.4,8.5,8.7,丽江斑鱼 斑鱼嫩豆花,116.2823774,39.88859802
647,嘎嘎辣串串香,火锅,东四南大街报房胡同东口12号,365,71,9,8.3,9.1,串串 肥牛片,116.4077501,39.9205259
648,玖斤油鹅肠火锅,火锅,顺白路何各庄村129号百年实验学校对面,492,152,8.8,9.2,8.4,嫩牛肉 鸳鸯锅底,116.4903526,40.04101313
649,芦月轩羊蝎子(西客站店),火锅,国投财富广场10号楼201,122,89,9.1,9,8.5,精品羊蝎子组合锅 小芦炸腐竹,116.3172213,39.88943256
650,呷哺呷哺(劲松萨克赛斯店),火锅,北京朝阳区劲松中街华威北里16号,44,59,8.7,8.8,8.4,呷哺秘制调料 菌汤锅底,116.4504664,39.87988238
651,牛鲜牛肚串串香(顺义艾迪城店),火锅,安泰大街艾迪城8号楼底商1层8-5-6铺,87,83,8.8,8.9,8.8,牛肉系列 鸳鸯锅底,116.5367767,40.08705675
652,玉林串串香(崇文门店),火锅,崇文门外大街40号搜秀购物广场4层,2188,90,8.5,8,8.2,麻辣牛肉 麻辣鸡肉串,116.4130174,39.8951519
653,穆益轩羊蝎子(平安里店),火锅,赵登禹路与平安里西大街交叉口,464,95,8.7,8.2,7.7,羊蝎子大锅 特色烧饼,116.3615909,39.93095947
654,小辉哥火锅(富力广场店),火锅,东三环中路65号富力广场北区3层305-308号,2739,129,8.5,9,8.4,特色雪花牛肉 炸腐皮（1例）,116.4543878,39.89458515
655,沸炉鲜货火锅・小龙虾(和平里店),火锅,兴化路甲2号和平里第三小学东门对面,1329,107,8.9,8.8,8.7,金牌毛肚 小酥肉,116.4081852,39.96107774
656,陈记顺和潮汕牛肉火锅(海淀魏公村店),火锅,中关村南大街11号光大国信大厦二层,1814,101,8.3,8.1,7.4,手锤牛肉丸 吊龙,116.3166961,39.95437863
657,赵小柒串串香(黄寺店),火锅,黄寺大街21号,500,87,8.9,8.3,8.8,香菜牛肉 嫩牛肉,116.3815321,39.96290634
658,玉林串串香(诺德店),火锅,五圈路诺德三期15号楼底商2层,207,78,8.7,8.9,8.7,辣牛肉 招牌鸳鸯锅底,116.3026791,39.82476878
659,常赢三兄弟涮肉(望京店),火锅,望京西路南湖中园312号首开知语城西侧底商,729,106,8.5,8.1,7.9,麻酱 手切鲜羊腱,116.4524296,39.99261225
660,德国啤酒坊・北门烤肉(崇文门店),烧烤,崇文门西大街9-1号,91,115,7.7,7.8,8,德国慕尼黑啤酒 雪花上脑,116.4065796,39.89994528
661,觅串(爱琴海店),火锅,北三环东路爱琴海购物中心4层,716,104,8.1,8.5,8,鸳鸯锅底 双椒牛肉串,116.4297831,39.97004324
662,馋小明,火锅,昌平镇鼓楼西街16-5,820,65,9,9,9,秘制鱼锅 小明酸菜鱼,116.2219533,40.22269117
663,零点柒贰串串香,火锅,建国路20号梆子井学生公寓二栋,65,53,8.9,8.4,9.1,鸳鸯锅底 麻辣牛肉,116.5509437,39.90634824
664,宽板凳老灶火锅(理想城店),火锅,理想城宏业路2号院1号楼1层6-7号商铺,523,99,9,9,8.5,极品鲜鸭血 麻辣孜然牛肉,116.3356081,39.78331651
665,蜗牛串串,火锅,天华东路林肯公园B区16号楼105号2层,292,77,8.6,8.7,8.9,牛肉 牛油小熊,116.4891767,39.80349364
666,老码头火锅(鸟巢店),火锅,大屯北路金泉广场金泉美食宫6号电梯2层,2289,109,8.4,8.5,8.4,牛油鸳鸯锅 精品肥牛卷,116.4058283,40.0046329
667,蜀一数串串香(常营总店),火锅,朝阳北路住欣家园1号楼1层103,29,66,8.9,8.6,8.5,串串签 骨汤鸳鸯锅,116.6065919,39.92135179
668,新辣道鱼火锅(花乡奥莱村店),火锅,南四环西路76号花乡奥莱村17号3层,392,102,8.8,9,9,番茄锅底 红汤梭边鱼锅,116.3174762,39.82602547
669,滇釜火锅・原香草香草(车公庄店),火锅,首体南路9号主语国际7号楼2楼,4438,119,8.7,8.3,8.2,菌王奇香锅 建水香豆腐,116.3188595,39.93296528
670,老东站涮肉,火锅,南关小庄25号,58,95,9.1,8.3,8.9,秘制麻酱 羊蝎子小锅,116.6601087,39.89738075
671,黄门老灶火锅(永辉店),火锅,百子湾路永辉超市底商,1413,129,9,8.7,8.7,黄门嫩牛肉 屠场鲜鸭血,116.4917683,39.90009065
672,芦月轩羊蝎子(太平桥店),火锅,太平桥路15号楼,2103,89,9.2,8.5,8.6,羊蝎子中锅 炸窝头片,116.3140174,39.87582641
673,小猫串烧,火锅,红居街远见名苑5号楼裙楼1层,106,80,8.6,8.3,8.5,特色串串 特色鸳鸯锅底,116.3334772,39.88560763
674,阿么特都嗨涮,火锅,果园地铁新华联家园北区的东门南侧50米。杨庄南里3-2号。,281,86,9.1,9,9.1,清补凉羊肉 烤羊肉串,116.6442116,39.89534664
675,南京龙宫龙虾・美蛙鱼头火锅(簋街店),火锅,东直门内大街288-5号,544,166,8.9,8.8,8.2,冰镇龙虾 特色美蛙,116.4110086,39.93929917
676,蜀签传成都串串(天键广场店),火锅,枣园路天键广场b座109,745,79,8.4,8.8,8.5,冷锅串串 琅琊土豆,116.308367,39.75119106
677,黄门老灶火锅(丽泽桥店),火锅,西三环南路甲27号,173,109,8.6,8.1,8.6,黄门嫩牛肉 黄门鲜鸭血,116.3035882,39.87049212
678,额尔敦传统涮(合生广场店),火锅,南三环中路合生广场5层,246,101,8.6,8.9,8.2,羊肉大葱烧麦 烤羊肉串,116.3915318,39.85461583
679,味蜀吾・沸腾三国火锅(通州店),火锅,通胡大街25号院10号楼二层5-1号,220,104,9,9.1,9,牛气冲天坨坨牛肉 焦糖豆花,116.6796116,39.91231461
680,汗普士涮肉馆(劲松店),火锅,方丹苑路西口与东二环交叉口东南角,914,83,9,8.8,9,羊肉礼盒 手切羊上脑,116.4418299,39.87814532
681,京门活鱼馆(百子湾店),火锅,广渠路百子湾沿海赛洛城312楼11号底商,395,104,8.7,7.6,8.1,洪湖斑鱼 斑鱼火锅,116.4984607,39.8942337
682,丽江龙记斑鱼庄(西直门店),火锅,西直门内大街168号,4024,108,8.4,7.7,7.8,斑鱼 秘制萝卜片,116.3573272,39.93900455
683,蝎王府羊蝎子(西三旗店),火锅,建材城西街中腾建华商务大厦一层,534,75,9,8.7,8.7,精品羊蝎子特大锅 特色面片,116.3295567,40.05760763
684,火炉火年糕火锅(五道口店),韩国料理,五道口国际食尚苑1楼,6925,63,7.8,7.3,7.7,火炉火传统年糕火锅 芝士炒饭,116.3323532,39.99204416
685,豆捞坊(火锅餐厅),火锅,西翠路与玉渊潭南路交叉口的东南角,1371,104,8.1,8.5,7.8,秘制麻酱小料 美味鲜虾滑,116.2773923,39.91164266
686,捞捞福火锅,火锅,北辰东路慧忠北里218号楼,585,314,8.8,8.9,8.4,特制小火烧 虾丸,116.394769,40.0041091
687,城都成串串香,火锅,温泉镇画眉山东路创客小镇底商112号,47,77,8.8,8.8,8.9,红油锅底 串串,116.1940868,40.04957516
688,山城辣妹子重庆火锅(世界之花购物中心店),火锅,旧宫镇久敬庄路临1号世界之花购物中心四层4F-B-31,313,99,8.9,9.1,9.1,鲜毛肚 鸳鸯锅,116.4161434,39.81822128
689,首尔798韩国料理地区(新荟城购物中心店),韩国料理,望京东园一区120号新荟城购物中心4层,2006,89,8.1,8.4,8.3,雪花炸鸡 年糕火锅,116.4761684,39.99744449
690,串串龙江二娃串串香(大望路店),火锅,南磨房路16号禧福汇北门底商,524,82,9,9.1,9.1,拔罐牛肉 麻辣牛肉,116.4693144,39.88183741
691,成都牛王庙串串香,火锅,工人体育场北路三里屯SOHO1号商场1层外侧123号,387,88,8.6,8,8.4,牛肉串 冰粉,116.4479214,39.93153047
692,潮鲜牛潮汕牛肉火锅(明珠百货立汤路店),火锅,立汤路188号明珠百货底商1层,839,88,8.5,8.2,8.6,手打牛肉丸 吊龙,116.4087629,40.05545359
693,滇釜火锅・原香草香草(清河店),火锅,黑泉路兴美大厦底商1号,478,110,8.8,8.8,8.8,菌王奇香锅 云南野生菌,116.366008,40.03312937
694,前门故事餐厅,北京菜,煤市街大栅栏39号西门,599,78,7.5,7.8,7.4,贝勒爷烤肉 八宝饭,116.388439,39.89454861
695,宽板凳老灶火锅(保福寺店),火锅,中关村南三街76号,386,116,8.8,8.8,8.7,巴蜀嫩牛肉 小酥肉,116.3215627,39.98097389
696,蝎王府羊蝎子(兴华大街店),火锅,兴华大街车站北里甲21号,3831,85,9.1,8.2,7.9,羊蝎子酱香味 加蝎子,116.3268774,39.7239287
697,陈记老北京铜锅涮肉(慈云寺店),火锅,延静里中街乙5号楼如家酒店楼下,440,107,9,8.5,8.8,手切鲜羊肉 精选肥羊,116.478534,39.91685232
698,潮味26潮汕牛肉丸火锅(朝阳路店),火锅,朝阳路周家井公交站东80米路南,560,73,8.7,7.6,8.3,招牌手锤牛肉丸 吊龙,116.5729769,39.9121294
699,六婆串串香火锅(圣熙八号店),火锅,学清路甲8号商业广场2号楼一层6号-2,1345,86,8.5,8.5,8.4,特色嫩牛肉 香菜牛肉,116.4824109,39.96965147
700,书香门第-书店里的餐厅(光华路店),火锅,光华路8号光华大厦B座内,370,110,7.7,8.1,7.6,书香门第虾蟹拼盘 波士顿龙虾,116.4639879,39.91216366
701,甲丁-熙和打边炉(西坝河店),火锅,光熙门北里34号,170,132,8.6,8.9,8.9,销魂牛尾锅 打边炉,116.4281994,39.96768687
702,老胡同铜锅涮肉(酷车小镇店),火锅,金蝉西路甲1号B2-7,343,82,8.8,8.9,8.7,大盘羊肉 老北京铜锅,116.4949312,39.87020195
703,东来顺饭庄(地安门店),火锅,地安门外大街56号,610,111,8.2,8.2,7.7,手切羊肉 相间肥牛,116.3899614,39.93727489
704,北平涮肉,火锅,东兴隆街56号,383,93,8.5,7.8,7.5,手切鲜羊腿 金牌羊上脑,116.4084753,39.89545308
705,香草香草云南原生态火锅(黄寺店),火锅,黄寺大街15号佰隆大厦4楼409,138,132,8.7,8.5,8.8,经典香草嫩牛 野山菌四拼,116.3827445,39.96193013
706,大龙D火锅(三里屯店),火锅,工人体育场东路美林大厦6号楼二层,522,133,8.3,8,7.8,牛油锅 嘎嘣脆毛肚,116.4444409,39.93007662
707,潮汕古巷牛肉火锅(西红门店),火锅,宏业路9号院嘉悦广场8号楼一层,654,101,8.6,8.7,8.8,手打牛肉丸 炸豆皮,116.3175057,39.78476021
708,黄记煌三汁焖锅(永旺梦乐城店),火锅,丰葆路88号院1号楼永旺梦乐城4层,1826,97,8.9,9,8.7,江团鱼 焖t鱼,116.2860117,39.81722164
709,新辣道鱼火锅(蓝色港湾店),火锅,朝阳公园路6号蓝色港湾M层,2133,128,8.5,8.3,8.3,梭边鱼 蔬菜自助,116.4688307,39.94747225
710,三江芦苇荡贵州酸汤鱼(回龙观店),贵州菜,回龙观科星西路和谐家园一区西门,1051,101,8.7,7.8,8.2,原味酸汤鱼 小米柞,116.3554345,40.08420879
711,宽板凳老灶火锅(五棵松蓝色港湾店),火锅,复兴路69号蓝色港湾购物中心东区B1层,215,121,8.4,8.1,8.1,特色鲜毛肚 巴蜀嫩牛肉,116.4676494,39.94809697
712,饭局-炙子烤肉 铜锅涮肉,火锅,朝阳路8里庄东里31号楼西侧,90,75,8.2,8.2,8.8,炙子烤肉 自卷羊腿肉,116.4916127,39.91407582
713,宽板凳老灶火锅(西单店),火锅,西安门大街181号,1357,127,8.9,8.1,8.3,巴蜀嫩牛肉 鸳鸯锅,116.3683921,39.92127335
714,尚捞港式回转小火锅,火锅,朝阳北路住欣家园西区临街商铺,41,58,7.6,7.6,7.9,番茄牛丸锅 吃好套餐,116.6035223,39.92270882
715,重庆地瓜老火锅(西四环北路总店),火锅,西四环北路136号金泰海博大酒店2楼,1759,97,8.8,8.9,8.5,地瓜鲜鸭血 地瓜老肉片,116.2691523,39.93671918
716,亮健容天土锅羊蝎子(林肯公园店),火锅,亦庄经济技术开发区文化园西路麦当劳西侧100米林肯公园北门203,668,85,9,8.4,8.8,精品羊排 精品羊蝎子,116.4877869,39.80333586
717,朱题・猪手火锅(安苑北里店),火锅,安定路安苑北里小区16号楼一层,2830,85,8.3,7.6,8.1,猪手火锅 木瓜猪蹄火锅,116.4020892,39.98385505
718,重庆肴焱火锅(大兴黄村店),火锅,黄村西大街地铁站D出口南行20米,1487,104,9,9.2,9.1,手切鲜羊肉 山城酥肉,116.4218547,39.84396521
719,草原牛上牛火锅店,火锅,莲花池南里21号北侧一层,325,110,9.1,9,8.8,招牌草原牛肉 自制内蒙熟酸奶,116.3106841,39.8867881
720,京都蝎府羊蝎子火锅(紫竹桥店),火锅,紫竹院路82号,2220,86,8.7,8.2,7.8,羊排蝎子锅 面片,116.2943409,39.94407624
721,宽店(昌平镇店),火锅,南环路10号院1号楼悦荟万科广场4层,1085,79,8.1,8.4,8,变态辣鸡翅 羊肉串,116.2330874,40.21084826
722,316号大众烧烤・羊蝎子火锅,烧烤,槐房西路316号院2号楼商铺东一区3-4号,145,79,8.6,8,8.5,蜜汁鸡翅 羊肉串,116.3605085,39.80648761
723,陈阿婆羊蝎子(西点茂店),火锅,永定路88号楼3层88-11室09号,445,96,8.7,9.1,9,爽口嫩肉 手捶牛肉丸锅底,116.259248,39.90438
724,山城辣妹子重庆火锅(长楹天街购物中心店),火锅,朝阳北路常营地铁站F出口右侧龙湖长楹天街购物中心东区4楼,4542,105,8.6,8.7,8.1,麻团 精品肥牛,116.5898236,39.92404026
725,北门涮肉(洋桥店),火锅,南三环中路辅路,5162,92,9.1,8.5,8.7,手打鲜虾滑 手切鲜羊肉,116.3973026,39.85549788
726,重来火锅(原记忆老灶火锅),火锅,望京街9号望京新城B区望京国际商业中心E座1层,1558,89,8.3,8.6,8.9,记忆九宫格全红锅 鲜鸭血,116.4782091,39.98865689
